{
    "items": [
        {
            "title": "باغ موزه هنر ایرانی",
            "address": "ولیعصر، توتونچی، جلیل شهناز، هفدهم",
            "category": "place",
            "type": "museum",
            "region": "تهران، استان تهران",
            "neighbourhood": "محله الهیه",
            "location": {
                "x": 51.4244596,
                "y": 35.7989962,
                "z": "NaN"
            }
        },
        {
            "title": "موزه سینمای ایران",
            "address": "ولیعصر، عباس کیارستمی - طوسی، دلبر",
            "category": "place",
            "type": "museum",
            "region": "تهران، استان تهران",
            "neighbourhood": "محله الهیه",
            "location": {
                "x": 51.4223657310383,
                "y": 35.802076970603856,
                "z": "NaN"
            }
        },
        {
            "title": "موزه دکتر حسابی",
            "address": "شهرداری، ولیعصر، دربندی، حسابی",
            "category": "place",
            "type": "museum",
            "region": "تهران، استان تهران",
            "neighbourhood": "محله الهیه",
            "location": {
                "x": 51.42565006434651,
                "y": 35.799158207893726,
                "z": "NaN"
            }
        },
        {
            "title": "موزه موسیقی تهران",
            "address": "دربندی، موزه",
            "category": "place",
            "type": "museum",
            "region": "تهران، استان تهران",
            "neighbourhood": "محله تجریش",
            "location": {
                "x": 51.4285254,
                "y": 35.80055409999999,
                "z": "NaN"
            }
        },
        {
            "title": "موزه زمان",
            "address": "ولیعصر، فلاحی",
            "category": "place",
            "type": "museum",
            "region": "تهران، استان تهران",
            "neighbourhood": "محله زعفرانیه",
            "location": {
                "x": 51.41984908513021,
                "y": 35.805479034677575,
                "z": "NaN"
            }
        },
        {
            "title": "بنیادفرهنگی امیر کبیر موزه خانه دکتر حبیبی",
            "address": "ولیعصر",
            "category": "place",
            "type": "museum",
            "region": "تهران، استان تهران",
            "neighbourhood": "محله الهیه",
            "location": {
                "x": 51.422696492621554,
                "y": 35.805628357867334,
                "z": "NaN"
            }
        },
        {
            "title": "موزه هنرهای زیبا",
            "address": "ولیعصر، فلاحی، طاهری",
            "category": "place",
            "type": "museum",
            "region": "تهران، استان تهران",
            "neighbourhood": "محله زعفرانیه",
            "location": {
                "x": 51.422879,
                "y": 35.81141809999999,
                "z": "NaN"
            }
        },
        {
            "title": "کاخ موزه ملت (کاخ سفید)",
            "address": "طاهری",
            "category": "place",
            "type": "museum",
            "region": "تهران، استان تهران",
            "neighbourhood": "محله دربند",
            "location": {
                "x": 51.4241021,
                "y": 35.81354989999999,
                "z": "NaN"
            }
        },
        {
            "title": "خانه موزه سیمین دانشور و جلال آل احمد",
            "address": "کریمی، رمضانی، سیمین دانشور، پسندیده، ارض",
            "category": "place",
            "type": "museum",
            "region": "تهران، استان تهران",
            "neighbourhood": "محله دزاشیب - حکمت",
            "location": {
                "x": 51.43945013688421,
                "y": 35.801809349117676,
                "z": "NaN"
            }
        },
        {
            "title": "موزه اتومبیل های سلطنتی",
            "address": "فلاحی، طاهری",
            "category": "place",
            "type": "museum",
            "region": "تهران، استان تهران",
            "neighbourhood": "محله دربند",
            "location": {
                "x": 51.4217559,
                "y": 35.81395689999998,
                "z": "NaN"
            }
        },
        {
            "title": "خانه نیما یوشیج (تهران)",
            "address": "دزاشیب، رمضانی، سیمین دانشور",
            "category": "place",
            "type": "museum",
            "region": "تهران، استان تهران",
            "neighbourhood": "محله دزاشیب - حکمت",
            "location": {
                "x": 51.43958380000001,
                "y": 35.80240689999999,
                "z": "NaN"
            }
        },
        {
            "title": "موزه آشپزخانه سلطنتی",
            "address": "جعفری",
            "category": "place",
            "type": "museum",
            "region": "تهران، استان تهران",
            "neighbourhood": "محله دربند",
            "location": {
                "x": 51.42561870859935,
                "y": 35.814259487654674,
                "z": "NaN"
            }
        },
        {
            "title": "موزه خط و کتابت میرعماد",
            "address": "فلاحی، طاهری",
            "category": "place",
            "type": "museum",
            "region": "تهران، استان تهران",
            "neighbourhood": "محله دربند",
            "location": {
                "x": 51.423482199999995,
                "y": 35.81476249999999,
                "z": "NaN"
            }
        },
        {
            "title": "موزه استاد فرشچیان",
            "address": "جعفری",
            "category": "place",
            "type": "museum",
            "region": "تهران، استان تهران",
            "neighbourhood": "محله دربند",
            "location": {
                "x": 51.4257752,
                "y": 35.814952200000015,
                "z": "NaN"
            }
        },
        {
            "title": "مجموعه فرهنگی تا\u200c\u200c\u200c\u200cریخی کاخ سعدآباد",
            "address": "افراز، جاودان، طاهری",
            "category": "place",
            "type": "museum",
            "region": "تهران، استان تهران",
            "neighbourhood": "محله دربند",
            "location": {
                "x": 51.42348138615489,
                "y": 35.81540595700722,
                "z": "NaN"
            }
        },
        {
            "title": "موزه استاد حسین بهزاد",
            "address": "فلاحی، طاهری",
            "category": "place",
            "type": "museum",
            "region": "تهران، استان تهران",
            "neighbourhood": "محله دربند",
            "location": {
                "x": 51.42424061894416,
                "y": 35.81532937245117,
                "z": "NaN"
            }
        },
        {
            "title": "خانه موزه عزت الله انتظامی",
            "address": "اندرزگو، احمدی",
            "category": "place",
            "type": "museum",
            "region": "تهران، استان تهران",
            "neighbourhood": "محله دزاشیب - حکمت",
            "location": {
                "x": 51.441971099999996,
                "y": 35.7962279,
                "z": "NaN"
            }
        },
        {
            "title": "مدل هیدرولیکی بند امیر",
            "address": "طاهری",
            "category": "place",
            "type": "museum",
            "region": "تهران، استان تهران",
            "neighbourhood": "محله دربند",
            "location": {
                "x": 51.421797849658375,
                "y": 35.815883302433775,
                "z": "NaN"
            }
        },
        {
            "title": "مدل هیدرولیکی سد کارون 3",
            "address": "طاهری",
            "category": "place",
            "type": "museum",
            "region": "تهران، استان تهران",
            "neighbourhood": "محله دربند",
            "location": {
                "x": 51.42155464936115,
                "y": 35.81594845240273,
                "z": "NaN"
            }
        },
        {
            "title": "موزه نیروی هوایی",
            "address": "افراز، جاودان، طاهری",
            "category": "place",
            "type": "museum",
            "region": "تهران، استان تهران",
            "neighbourhood": "محله دربند",
            "location": {
                "x": 51.4235911816133,
                "y": 35.816055251456504,
                "z": "NaN"
            }
        },
        {
            "title": "موزه نظامی",
            "address": "فلاحی - زعفرانیه، طاهری",
            "category": "place",
            "type": "museum",
            "region": "تهران، استان تهران",
            "neighbourhood": "محله دربند",
            "location": {
                "x": 51.42400796103738,
                "y": 35.81618113329767,
                "z": "NaN"
            }
        },
        {
            "title": "موزه آب",
            "address": "طاهری",
            "category": "place",
            "type": "museum",
            "region": "تهران، استان تهران",
            "neighbourhood": "محله دربند",
            "location": {
                "x": 51.421894616058516,
                "y": 35.816501635571186,
                "z": "NaN"
            }
        },
        {
            "title": "کاخ اشرف (موزه ظروف سلطنتی)",
            "address": "جعفری",
            "category": "place",
            "type": "museum",
            "region": "تهران، استان تهران",
            "neighbourhood": "محله دربند",
            "location": {
                "x": 51.425336599999994,
                "y": 35.817023,
                "z": "NaN"
            }
        },
        {
            "title": "کاخ موزه سبز (کاخ شهوند)",
            "address": "میدان دربند",
            "category": "place",
            "type": "museum",
            "region": "تهران، استان تهران",
            "neighbourhood": "محله دربند",
            "location": {
                "x": 51.42214979999999,
                "y": 35.81787130000001,
                "z": "NaN"
            }
        },
        {
            "title": "کاخ شمس (موزه پوشاک سلطنتی)",
            "address": "دربند، میدان دربند",
            "category": "place",
            "type": "museum",
            "region": "تهران، استان تهران",
            "neighbourhood": "محله دربند",
            "location": {
                "x": 51.4246424,
                "y": 35.818302499999994,
                "z": "NaN"
            }
        },
        {
            "title": "موزه برادران امیدوار",
            "address": "میدان دربند",
            "category": "place",
            "type": "museum",
            "region": "تهران، استان تهران",
            "neighbourhood": "محله دربند",
            "location": {
                "x": 51.4209469,
                "y": 35.81888189999999,
                "z": "NaN"
            }
        },
        {
            "title": "کاخ کوشک احمدشاهی",
            "address": "میدان دربند",
            "category": "place",
            "type": "museum",
            "region": "تهران، استان تهران",
            "neighbourhood": "محله دربند",
            "location": {
                "x": 51.42098278653622,
                "y": 35.819184515223654,
                "z": "NaN"
            }
        },
        {
            "title": "آرت سنتر باغ",
            "address": "دزاشیب، کریمی، سلیمی شمالی",
            "category": "place",
            "type": "museum",
            "region": "تهران، استان تهران",
            "neighbourhood": "محله دزاشیب - حکمت",
            "location": {
                "x": 51.4456681,
                "y": 35.804449399999996,
                "z": "NaN"
            }
        },
        {
            "title": "موزه سلاح های دربار",
            "address": "دربند، میدان دربند",
            "category": "place",
            "type": "museum",
            "region": "تهران، استان تهران",
            "neighbourhood": "محله دربند",
            "location": {
                "x": 51.4251029,
                "y": 35.81932469999999,
                "z": "NaN"
            }
        },
        {
            "title": "نگارخانه سعدآباد",
            "address": "دربند، میدان دربند",
            "category": "place",
            "type": "museum",
            "region": "تهران، استان تهران",
            "neighbourhood": "محله دربند",
            "location": {
                "x": 51.42531977744776,
                "y": 35.820302897193805,
                "z": "NaN"
            }
        },
        {
            "title": "موزه کامپیوتر ایران",
            "address": "استاد حسن بنا شمالی",
            "category": "place",
            "type": "museum",
            "region": "تهران، استان تهران",
            "neighbourhood": "محله شمس آباد",
            "location": {
                "x": 51.4705024209795,
                "y": 35.74783685702366,
                "z": "NaN"
            }
        },
        {
            "title": "موزه مجازی هنر کودک",
            "address": "بزرگراه امام علی، جعفریان، جوانشیر",
            "category": "place",
            "type": "museum",
            "region": "تهران، استان تهران",
            "neighbourhood": "محله هروی - حسین آباد",
            "location": {
                "x": 51.48505685984852,
                "y": 35.77521355205693,
                "z": "NaN"
            }
        },
        {
            "title": "موزه فرش رسام عرب زاده",
            "address": "پاسداران، زمردیان",
            "category": "place",
            "type": "museum",
            "region": "تهران، استان تهران",
            "neighbourhood": "محله پاسداران - ضرابخانه",
            "location": {
                "x": 51.45580980208335,
                "y": 35.76258214401424,
                "z": "NaN"
            }
        },
        {
            "title": "موزه موسسه فرهنگی هنری رسام عرب زاده",
            "address": "پاسداران، زمردیان",
            "category": "place",
            "type": "museum",
            "region": "تهران، استان تهران",
            "neighbourhood": "محله پاسداران - ضرابخانه",
            "location": {
                "x": 51.45570179281609,
                "y": 35.76259769165206,
                "z": "NaN"
            }
        },
        {
            "title": "موزه آموزشی سروش",
            "address": "پاسداران، سوری، راستوان",
            "category": "place",
            "type": "museum",
            "region": "تهران، استان تهران",
            "neighbourhood": "محله دروس",
            "location": {
                "x": 51.454514322462344,
                "y": 35.767081871753845,
                "z": "NaN"
            }
        },
        {
            "title": "موزه رضا عباسی",
            "address": "سهروردی شمالی، مهاجر",
            "category": "place",
            "type": "museum",
            "region": "تهران، استان تهران",
            "neighbourhood": "محله نیلوفر - شهید قندی",
            "location": {
                "x": 51.44642519999999,
                "y": 35.741032499999996,
                "z": "NaN"
            }
        },
        {
            "title": "زندان سیاسی شماره 2",
            "address": "بزرگراه شهید صیاد شیرازی، پلیس، شهید محمد اسماعیل",
            "category": "place",
            "type": "museum",
            "region": "تهران، استان تهران",
            "neighbourhood": "محله قصر",
            "location": {
                "x": 51.44949699999999,
                "y": 35.72452899999999,
                "z": "NaN"
            }
        },
        {
            "title": "باغ موزه زندان قصر",
            "address": "بزرگراه شهید صیاد شیرازی، پلیس، شهید محمد اسماعیل",
            "category": "place",
            "type": "museum",
            "region": "تهران، استان تهران",
            "neighbourhood": "محله قصر",
            "location": {
                "x": 51.448289223017476,
                "y": 35.723512717168376,
                "z": "NaN"
            }
        },
        {
            "title": "موزه ملی کارآفرینان ایرانی",
            "address": "شهدای ناجا",
            "category": "place",
            "type": "museum",
            "region": "تهران، استان تهران",
            "neighbourhood": "محله قصر",
            "location": {
                "x": 51.44834573772105,
                "y": 35.72216609477732,
                "z": "NaN"
            }
        },
        {
            "title": "موزه کودکی ایرانک",
            "address": "بزرگراه شهید حقانی، کوشا، حصاری",
            "category": "place",
            "type": "museum",
            "region": "تهران، استان تهران",
            "neighbourhood": "محله میرداماد",
            "location": {
                "x": 51.43807404311104,
                "y": 35.75338255740243,
                "z": "NaN"
            }
        },
        {
            "title": "ساختمان گنجینه اسناد ملی (آرشیو ملی ایران)",
            "address": "بزرگراه شهید حقانی، کوشا، حصاری",
            "category": "place",
            "type": "museum",
            "region": "تهران، استان تهران",
            "neighbourhood": "محله میرداماد",
            "location": {
                "x": 51.4379308,
                "y": 35.75320479999999,
                "z": "NaN"
            }
        },
        {
            "title": "باغ موزه ملی کار",
            "address": "بزرگراه شهید صیاد شیرازی، پلیس، باباخانلو، گلپایگانی ها",
            "category": "place",
            "type": "museum",
            "region": "تهران، استان تهران",
            "neighbourhood": "محله خواجه نظام",
            "location": {
                "x": 51.4498854034712,
                "y": 35.71957259579648,
                "z": "NaN"
            }
        },
        {
            "title": "موزه نیروی هوایی ارتش",
            "address": "پنجم نیروی هوایی، چهار فصل",
            "category": "place",
            "type": "museum",
            "region": "تهران، استان تهران",
            "neighbourhood": "محله نیروی هوایی",
            "location": {
                "x": 51.48081806419692,
                "y": 35.704356476642225,
                "z": "NaN"
            }
        },
        {
            "title": "عمارت ارباب هرمز (موزه گرافیک ایران)",
            "address": "بزرگراه باقری، استقلال، پلیس",
            "category": "place",
            "type": "museum",
            "region": "تهران، استان تهران",
            "neighbourhood": "محله مجید آباد - استقلال",
            "location": {
                "x": 51.54265142977238,
                "y": 35.759413738618406,
                "z": "NaN"
            }
        },
        {
            "title": "موزه نسخ خطی کتابخانه ملی",
            "category": "place",
            "type": "museum",
            "region": "تهران، استان تهران",
            "neighbourhood": "محله اراضی عباس آباد",
            "location": {
                "x": 51.4342819267687,
                "y": 35.7523229607885,
                "z": "NaN"
            }
        },
        {
            "title": "موزه کتاب و میراث مستند ایران",
            "address": "بزرگراه شهید همت، بزرگراه شهید حقانی، بلوار کتابخانه ملی",
            "category": "place",
            "type": "museum",
            "region": "تهران، استان تهران",
            "neighbourhood": "محله اراضی عباس آباد",
            "location": {
                "x": 51.433757850587746,
                "y": 35.752165583240945,
                "z": "NaN"
            }
        },
        {
            "title": "پارک موزه آب",
            "address": "شریعتی، یخچال",
            "category": "place",
            "type": "museum",
            "region": "تهران، استان تهران",
            "neighbourhood": "محله قلهک",
            "location": {
                "x": 51.4416056,
                "y": 35.772169,
                "z": "NaN"
            }
        },
        {
            "title": "باغ موزه اب",
            "address": "شریعتی، یخچال",
            "category": "place",
            "type": "museum",
            "region": "تهران، استانتهران",
            "neighbourhood": "محله قلهک",
            "location": {
                "x": 51.441736623597414,
                "y": 35.77262263974762,
                "z": "NaN"
            }
        },
        {
            "title": "موزه ملی علوم و فناوری",
            "address": "بزرگراه شهید همت، بزرگراه شهید حقانی، بلوار حبیبی",
            "category": "place",
            "type": "museum",
            "region": "تهران، استان تهران",
            "neighbourhood": "محله اراضی عباس آباد",
            "location": {
                "x": 51.43231842259848,
                "y": 35.75435000051474,
                "z": "NaN"
            }
        },
        {
            "title": "موزه سرای شهید آیت الله دکتر بهشتی",
            "address": "شریعتی، صدیق، مطهری، بهشتی",
            "category": "place",
            "type": "museum",
            "region": "تهران، استان تهران",
            "neighbourhood": "محله زرگنده",
            "location": {
                "x": 51.4373005,
                "y": 35.7681842,
                "z": "NaN"
            }
        },
        {
            "title": "نگارخانه نهاوند",
            "address": "بلوار میرداماد",
            "category": "place",
            "type": "museum",
            "region": "تهران، استان تهران",
            "neighbourhood": "محله میرداماد",
            "location": {
                "x": 51.43219055666044,
                "y": 35.75986026026252,
                "z": "NaN"
            }
        },
        {
            "title": "خانه موزه شهید مطهری",
            "address": "کلاهدوز (دولت)، صدرا",
            "category": "place",
            "type": "museum",
            "region": "تهران، استان تهران",
            "neighbourhood": "محله کاوه",
            "location": {
                "x": 51.44275989999999,
                "y": 35.77781329999999,
                "z": "NaN"
            }
        },
        {
            "title": "قصر فیروزه (کاخ فرح‌آباد)",
            "address": "بزرگراه شهید دوران",
            "category": "place",
            "type": "museum",
            "region": "شهرستان تهران، استان تهران",
            "location": {
                "x": 51.508801559482656,
                "y": 35.701338132928065,
                "z": "NaN"
            }
        },
        {
            "title": "باغ موزه بانک مرکزی ایران",
            "category": "place",
            "type": "museum",
            "region": "تهران، استان تهران",
            "neighbourhood": "محله اراضی عباس آباد",
            "location": {
                "x": 51.4293613,
                "y": 35.75660239999999,
                "z": "NaN"
            }
        },
        {
            "title": "موزه سراسرنمای دفاع مقدس",
            "address": "بزرگراه مدرس، بزرگراه شهید همت",
            "category": "place",
            "type": "museum",
            "region": "تهران، استان تهران",
            "neighbourhood": "محله اراضی عباس آباد",
            "location": {
                "x": 51.42830817257729,
                "y": 35.75044315447192,
                "z": "NaN"
            }
        },
        {
            "title": "باغ موزه دفاع مقدس",
            "address": "بزرگراه مدرس، بزرگراه شهید همت",
            "category": "place",
            "type": "museum",
            "region": "تهران، استان تهران",
            "neighbourhood": "محله اراضی عباس آباد",
            "location": {
                "x": 51.42580579797462,
                "y": 35.751960273804364,
                "z": "NaN"
            }
        },
        {
            "title": "موزه نقشه تهران",
            "address": "بزرگراه ارتش، موحد دانش (اقدسیه)",
            "category": "place",
            "type": "museum",
            "region": "تهران، استان تهران",
            "neighbourhood": "محله کاشانک",
            "location": {
                "x": 51.48169606903965,
                "y": 35.800610448536325,
                "z": "NaN"
            }
        },
        {
            "title": "خانه موزه استاد لر زاده",
            "address": "شریعتی، خداپرست",
            "category": "place",
            "type": "museum",
            "region": "تهران، استان تهران",
            "neighbourhood": "محله بهار",
            "location": {
                "x": 51.436778,
                "y": 35.71405539999999,
                "z": "NaN"
            }
        },
        {
            "title": "موزه عکاس خانه شهر",
            "address": "سهروردی جنوبی، بهار شیراز",
            "category": "place",
            "type": "museum",
            "region": "تهران، استان تهران",
            "neighbourhood": "محله امجدیه - خاقانی",
            "location": {
                "x": 51.4317569,
                "y": 35.71772689999999,
                "z": "NaN"
            }
        },
        {
            "title": "موزه آثار شهدا",
            "address": "بزرگراه صدر، پاشا ظهری، بهمن پور، هاشمی",
            "category": "place",
            "type": "museum",
            "region": "تهران، استان تهران",
            "neighbourhood": "محله چیذر",
            "location": {
                "x": 51.45711043179088,
                "y": 35.79667666243973,
                "z": "NaN"
            }
        },
        {
            "title": "خانه و موزه استاد معین و استاد امیر جاهد",
            "address": "بزرگراه امام علی، فردوس",
            "category": "place",
            "type": "museum",
            "region": "تهران، استان تهران",
            "neighbourhood": "محله چهارصد دستگاه",
            "location": {
                "x": 51.458630899999996,
                "y": 35.687802399999995,
                "z": "NaN"
            }
        },
        {
            "title": "موزه صنعت برق ایران",
            "address": "پیروزی، اسپندی، شهبازی",
            "category": "place",
            "type": "museum",
            "region": "تهران، استان تهران",
            "neighbourhood": "محله صفا",
            "location": {
                "x": 51.450893799999996,
                "y": 35.69199559999999,
                "z": "NaN"
            }
        },
        {
            "title": "مرکز هنر پردیس - سنگسر",
            "address": "نبرد شمالی، داوودآبادی(فرزانه)، محمدی، صاحب الزمان",
            "category": "place",
            "type": "museum",
            "region": "تهران، استان تهران",
            "neighbourhood": "محله صد دستگاه",
            "location": {
                "x": 51.4748963,
                "y": 35.6874639,
                "z": "NaN"
            }
        },
        {
            "title": "موزه نیروی هوایی ارتش",
            "address": "پنجم نیروی هوایی، چهار فصل",
            "category": "place",
            "type": "museum",
            "region": "تهران، استان تهران",
            "neighbourhood": "محله نیروی هوایی",
            "location": {
                "x": 51.48081806419692,
                "y": 35.704356476642225,
                "z": "NaN"
            }
        },
        {
            "title": "خانه موزه شهید رجایی",
            "address": "مجاهدین اسلام، آجانلو، میرزایی",
            "category": "place",
            "type": "museum",
            "region": "تهران، استان تهران",
            "neighbourhood": "محله ایران",
            "location": {
                "x": 51.438251099999995,
                "y": 35.68984249999999,
                "z": "NaN"
            }
        },
        {
            "title": "باغ موزه نگارستان",
            "address": "بهارستان، دانشسرا، شریعتمدار رفیع",
            "category": "place",
            "type": "museum",
            "region": "تهران، استان تهران",
            "neighbourhood": "محله بهارستان",
            "location": {
                "x": 51.432935051224874,
                "y": 35.69497626856969,
                "z": "NaN"
            }
        },
        {
            "title": "مجلس قدیم",
            "address": "مصطفی خمینی",
            "category": "place",
            "type": "museum",
            "region": "تهران، استان تهران",
            "neighbourhood": "محله ایران",
            "location": {
                "x": 51.433016402275285,
                "y": 35.690399495401515,
                "z": "NaN"
            }
        },
        {
            "title": "موزه هنرهای تجسمی پاسارگاد",
            "address": "بهارستان، دانشسرا، شریعتمدار رفیع",
            "category": "place",
            "type": "museum",
            "region": "تهران، استان تهران",
            "neighbourhood": "محله بهارستان",
            "location": {
                "x": 51.432792138621934,
                "y": 35.695184741573186,
                "z": "NaN"
            }
        },
        {
            "title": "موزه تاریخ مفاخر باغ نگارستان",
            "address": "مصطفی خمینی، کمال الملک، نیکخو",
            "category": "place",
            "type": "museum",
            "region": "تهران، استان تهران",
            "neighbourhood": "محله بهارستان",
            "location": {
                "x": 51.43268459276984,
                "y": 35.69442021757301,
                "z": "NaN"
            }
        },
        {
            "title": "موزه هنرهای ملی",
            "address": "بهارستان، دانشسرا",
            "category": "place",
            "type": "museum",
            "region": "تهران، استان تهران",
            "neighbourhood": "محله بهارستان",
            "location": {
                "x": 51.432372699999995,
                "y": 35.6929048,
                "z": "NaN"
            }
        },
        {
            "title": "حمام نواب",
            "address": "ری، نعیمی سپهر",
            "category": "place",
            "type": "museum",
            "region": "تهران، استان تهران",
            "neighbourhood": "محله امام زاده یحیی",
            "location": {
                "x": 51.4363518,
                "y": 35.6796649,
                "z": "NaN"
            }
        },
        {
            "title": "خانه موزه شهید مدرس",
            "address": "امیرکبیر، جاویدی، مدرس",
            "category": "place",
            "type": "museum",
            "region": "تهران، استان تهران",
            "neighbourhood": "محله امام زاده یحیی",
            "location": {
                "x": 51.43407285310901,
                "y": 35.68142470073209,
                "z": "NaN"
            }
        },
        {
            "title": "موزه خوشنویسی",
            "address": "شریعتی، فولادوند",
            "category": "place",
            "type": "museum",
            "region": "تهران، استان تهران",
            "neighbourhood": "محله خواجه نصیر - حقوقی",
            "location": {
                "x": 51.432477733333336,
                "y": 35.703898166666654,
                "z": "NaN"
            }
        },
        {
            "title": "خانه موزه استاد ابوالحسن صبا",
            "address": "جمهوری اسلامی، ظهیرالاسلام، اول",
            "category": "place",
            "type": "museum",
            "region": "تهران، استان تهران",
            "neighbourhood": "محله بهارستان",
            "location": {
                "x": 51.42978069999999,
                "y": 35.69409139999999,
                "z": "NaN"
            }
        },
        {
            "title": "موزه نقاشی پشت شیشه",
            "address": "سعدی شمالی، قائدی",
            "category": "place",
            "type": "museum",
            "region": "تهران، استان تهران",
            "neighbourhood": "محله بهارستان",
            "location": {
                "x": 51.4303628,
                "y": 35.6990924,
                "z": "NaN"
            }
        },
        {
            "title": "باغ موزه ملی کار",
            "address": "بزرگراه شهید صیاد شیرازی، پلیس، باباخانلو، گلپایگانی ها",
            "category": "place",
            "type": "museum",
            "region": "تهران، استان تهران",
            "neighbourhood": "محله خواجه نظام",
            "location": {
                "x": 51.4498854034712,
                "y": 35.71957259579648,
                "z": "NaN"
            }
        },
        {
            "title": "موزه عمارت کاظمی",
            "address": "ری، نعیمی سپهر، امامزاده یحیی، طهماسبی",
            "category": "place",
            "type": "museum",
            "region": "تهران، استان تهران",
            "neighbourhood": "محله امام زاده یحیی",
            "location": {
                "x": 51.434168799999995,
                "y": 35.677682499999996,
                "z": "NaN"
            }
        },
        {
            "title": "خانه موزه استاد لر زاده",
            "address": "شریعتی، خداپرست",
            "category": "place",
            "type": "museum",
            "region": "تهران، استان تهران",
            "neighbourhood": "محله بهار",
            "location": {
                "x": 51.436778,
                "y": 35.71405539999999,
                "z": "NaN"
            }
        },
        {
            "title": "موزه حمام قبله (حمام خانم)",
            "address": "بزرگراه محلاتی، 15 خرداد، حمام قبله",
            "category": "place",
            "type": "museum",
            "region": "تهران، استان تهران",
            "neighbourhood": "محله بازار تهران",
            "location": {
                "x": 51.43464583414242,
                "y": 35.67442674174507,
                "z": "NaN"
            }
        },
        {
            "title": "موزه ملی کارآفرینان ایرانی",
            "address": "شهدای ناجا",
            "category": "place",
            "type": "museum",
            "region": "تهران، استان تهران",
            "neighbourhood": "محله قصر",
            "location": {
                "x": 51.44834573772105,
                "y": 35.72216609477732,
                "z": "NaN"
            }
        },
        {
            "title": "موزه پمپ بنزین دروازه دولت",
            "address": "سعدی شمالی، فیات",
            "category": "place",
            "type": "museum",
            "region": "تهران، استان تهران",
            "neighbourhood": "محله فردوسی",
            "location": {
                "x": 51.42580032348633,
                "y": 35.70111538288022,
                "z": "NaN"
            }
        },
        {
            "title": "موزه عروسک و فرهنگ",
            "address": "سعدی شمالی، رفیعی",
            "category": "place",
            "type": "museum",
            "region": "تهران، استان تهران",
            "neighbourhood": "محله فردوسی",
            "location": {
                "x": 51.42525508151051,
                "y": 35.70126428297882,
                "z": "NaN"
            }
        },
        {
            "title": "باغ موزه زندان قصر",
            "address": "بزرگراه شهید صیاد شیرازی، پلیس، شهید محمد اسماعیل",
            "category": "place",
            "type": "museum",
            "region": "تهران، استان تهران",
            "neighbourhood": "محله قصر",
            "location": {
                "x": 51.448289223017476,
                "y": 35.723512717168376,
                "z": "NaN"
            }
        },
        {
            "title": "زندان سیاسی شماره 2",
            "address": "بزرگراه شهید صیاد شیرازی، پلیس، شهید محمد اسماعیل",
            "category": "place",
            "type": "museum",
            "region": "تهران، استان تهران",
            "neighbourhood": "محله قصر",
            "location": {
                "x": 51.44949699999999,
                "y": 35.72452899999999,
                "z": "NaN"
            }
        },
        {
            "title": "خانه موزه شهید دکتر چمران",
            "address": "مصطفی خمینی، حمام چال، غفاری، بشیری",
            "category": "place",
            "type": "museum",
            "region": "تهران، استان تهران",
            "neighbourhood": "محله بازار تهران",
            "location": {
                "x": 51.4285692,
                "y": 35.6746325,
                "z": "NaN"
            }
        },
        {
            "title": "موزه و مجتمع فرهنگی 13 آبان",
            "address": "مفتح جنوبی، طالقانی",
            "category": "place",
            "type": "museum",
            "region": "تهران، استان تهران",
            "neighbourhood": "محله ایرانشهر",
            "location": {
                "x": 51.42367111536159,
                "y": 35.70756260130128,
                "z": "NaN"
            }
        },
        {
            "title": "موزه عکاس خانه شهر",
            "address": "سهروردی جنوبی، بهار شیراز",
            "category": "place",
            "type": "museum",
            "region": "تهران، استان تهران",
            "neighbourhood": "محله امجدیه - خاقانی",
            "location": {
                "x": 51.4317569,
                "y": 35.71772689999999,
                "z": "NaN"
            }
        },
        {
            "title": "خانه ابتهاج",
            "address": "فردوسی، تقوی، انوشیروانی",
            "category": "place",
            "type": "museum",
            "region": "تهران، استان تهران",
            "neighbourhood": "محله فردوسی",
            "location": {
                "x": 51.420565700000004,
                "y": 35.7000701,
                "z": "NaN"
            }
        },
        {
            "title": "موزه جواهرات ملی",
            "address": "جمهوری اسلامی، فردوسی",
            "category": "place",
            "type": "museum",
            "region": "تهران، استان تهران",
            "neighbourhood": "محله فردوسی",
            "location": {
                "x": 51.41958891816961,
                "y": 35.693636401275086,
                "z": "NaN"
            }
        },
        {
            "title": "موزه بانک ملی ایران",
            "address": "فردوسی",
            "category": "place",
            "type": "museum",
            "region": "تهران، استان تهران",
            "neighbourhood": "محله فردوسی",
            "location": {
                "x": 51.419632199999995,
                "y": 35.6920819,
                "z": "NaN"
            }
        },
        {
            "title": "خانه موزه شهید مدرس",
            "address": "امیرکبیر، جاویدی، مدرس",
            "category": "place",
            "type": "museum",
            "region": "تهران، استان تهران",
            "neighbourhood": "محله امام زاده یحیی",
            "location": {
                "x": 51.43407285310901,
                "y": 35.68142470073209,
                "z": "NaN"
            }
        },
        {
            "title": "مجلس قدیم",
            "address": "مصطفی خمینی",
            "category": "place",
            "type": "museum",
            "region": "تهران، استان تهران",
            "neighbourhood": "محله ایران",
            "location": {
                "x": 51.433016402275285,
                "y": 35.690399495401515,
                "z": "NaN"
            }
        },
        {
            "title": "موزه استاد علی اکبر صنعتی",
            "address": "فردوسی، امام خمینی",
            "category": "place",
            "type": "museum",
            "region": "تهران، استان تهران",
            "neighbourhood": "محله فردوسی",
            "location": {
                "x": 51.420244905921194,
                "y": 35.68623228045281,
                "z": "NaN"
            }
        },
        {
            "title": "موزه سکه بانک سپه",
            "address": "امام خمینی",
            "category": "place",
            "type": "museum",
            "region": "تهران، استان تهران",
            "neighbourhood": "محله فردوسی",
            "location": {
                "x": 51.41970481807657,
                "y": 35.686063475922154,
                "z": "NaN"
            }
        },
        {
            "title": "کاخ برلیان",
            "address": "ناصرخسرو، 15 خرداد، میدان 15 خرداد",
            "category": "place",
            "type": "museum",
            "region": "تهران، استان تهران",
            "neighbourhood": "محله ارگ - پامنار",
            "location": {
                "x": 51.421260962276754,
                "y": 35.68042581178912,
                "z": "NaN"
            }
        },
        {
            "title": "حمام نواب",
            "address": "ری، نعیمی سپهر",
            "category": "place",
            "type": "museum",
            "region": "تهران، استان تهران",
            "neighbourhood": "محله امام زاده یحیی",
            "location": {
                "x": 51.4363518,
                "y": 35.6796649,
                "z": "NaN"
            }
        },
        {
            "title": "شمس العماره",
            "address": "سعدی جنوبی، ناصر خسرو",
            "category": "place",
            "type": "museum",
            "region": "تهران، استان تهران",
            "neighbourhood": "محله ارگ - پامنار",
            "location": {
                "x": 51.422101500000004,
                "y": 35.679401999999996,
                "z": "NaN"
            }
        },
        {
            "title": "تالار ظروف",
            "address": "ناصرخسرو، 15 خرداد، میدان 15 خرداد",
            "category": "place",
            "type": "museum",
            "region": "تهران، استان تهران",
            "neighbourhood": "محله ارگ - پامنار",
            "location": {
                "x": 51.42087946966326,
                "y": 35.680406443181916,
                "z": "NaN"
            }
        },
        {
            "title": "موزه عمارت کاظمی",
            "address": "ری، نعیمی سپهر، امامزاده یحیی، طهماسبی",
            "category": "place",
            "type": "museum",
            "region": "تهران، استان تهران",
            "neighbourhood": "محله امام زاده یحیی",
            "location": {
                "x": 51.434168799999995,
                "y": 35.677682499999996,
                "z": "NaN"
            }
        },
        {
            "title": "موزه حوضخانه",
            "address": "ناصرخسرو، 15 خرداد، میدان 15 خرداد",
            "category": "place",
            "type": "museum",
            "region": "تهران، استان تهران",
            "neighbourhood": "محله ارگ - پامنار",
            "location": {
                "x": 51.42050027847291,
                "y": 35.68042989874195,
                "z": "NaN"
            }
        },
        {
            "title": "عمارت بادگیر",
            "address": "ناصرخسرو، 15 خرداد، میدان 15 خرداد",
            "category": "place",
            "type": "museum",
            "region": "تهران، استان تهران",
            "neighbourhood": "محله ارگ - پامنار",
            "location": {
                "x": 51.421797420120505,
                "y": 35.679069584164225,
                "z": "NaN"
            }
        },
        {
            "title": "کاخ موزه گلستان",
            "address": "ناصرخسرو، 15 خرداد، میدان 15 خرداد",
            "category": "place",
            "type": "museum",
            "region": "تهران، استان تهران",
            "neighbourhood": "محله ارگ - پامنار",
            "location": {
                "x": 51.42054945230485,
                "y": 35.680339627522386,
                "z": "NaN"
            }
        },
        {
            "title": "موزه هنرهای ملی",
            "address": "بهارستان، دانشسرا",
            "category": "place",
            "type": "museum",
            "region": "تهران، استان تهران",
            "neighbourhood": "محله بهارستان",
            "location": {
                "x": 51.432372699999995,
                "y": 35.6929048,
                "z": "NaN"
            }
        },
        {
            "title": "تالار سلام",
            "address": "ناصرخسرو، 15 خرداد، میدان 15 خرداد",
            "category": "place",
            "type": "museum",
            "region": "تهران، استان تهران",
            "neighbourhood": "محله ارگ- پامنار",
            "location": {
                "x": 51.42020268083334,
                "y": 35.68045133089024,
                "z": "NaN"
            }
        },
        {
            "title": "عمارت چادرخانه و عکسخانه",
            "address": "ناصرخسرو، 15 خرداد، میدان 15 خرداد",
            "category": "place",
            "type": "museum",
            "region": "تهران، استان تهران",
            "neighbourhood": "محله ارگ - پامنار",
            "location": {
                "x": 51.42127833998878,
                "y": 35.679023669462495,
                "z": "NaN"
            }
        },
        {
            "title": "موزه عبرت",
            "address": "امام خمینی، پست، یارجانی",
            "category": "place",
            "type": "museum",
            "region": "تهران، استان تهران",
            "neighbourhood": "محله فردوسی",
            "location": {
                "x": 51.41875279999999,
                "y": 35.68706689999999,
                "z": "NaN"
            }
        },
        {
            "title": "خلوت کریم خانی",
            "address": "ناصرخسرو، 15 خرداد، میدان 15 خرداد",
            "category": "place",
            "type": "museum",
            "region": "تهران، استان تهران",
            "neighbourhood": "محله ارگ - پامنار",
            "location": {
                "x": 51.42001710890327,
                "y": 35.68019918044208,
                "z": "NaN"
            }
        },
        {
            "title": "خانه موزه شهید رجایی",
            "address": "مجاهدین اسلام، آجانلو، میرزایی",
            "category": "place",
            "type": "museum",
            "region": "تهران، استان تهران",
            "neighbourhood": "محله ایران",
            "location": {
                "x": 51.438251099999995,
                "y": 35.68984249999999,
                "z": "NaN"
            }
        },
        {
            "title": "خانه موزه استاد ابوالحسن صبا",
            "address": "جمهوری اسلامی، ظهیرالاسلام، اول",
            "category": "place",
            "type": "museum",
            "region": "تهران، استان تهران",
            "neighbourhood": "محله بهارستان",
            "location": {
                "x": 51.42978069999999,
                "y": 35.69409139999999,
                "z": "NaN"
            }
        },
        {
            "title": "موزه ارتباطات",
            "address": "امام خمینی، پست، یارجانی",
            "category": "place",
            "type": "museum",
            "region": "تهران، استان تهران",
            "neighbourhood": "محله فردوسی",
            "location": {
                "x": 51.4179026,
                "y": 35.68621449999999,
                "z": "NaN"
            }
        },
        {
            "title": "موزه مخصوص",
            "address": "خیام، 15 خرداد، میدان 15 خرداد",
            "category": "place",
            "type": "museum",
            "region": "تهران، استان تهران",
            "neighbourhood": "محله ارگ - پامنار",
            "location": {
                "x": 51.41999143191643,
                "y": 35.67928392238576,
                "z": "NaN"
            }
        },
        {
            "title": "موزه مردم شناسی (کاخ ابیض)",
            "address": "ناصرخسرو، 15 خرداد، میدان 15 خرداد",
            "category": "place",
            "type": "museum",
            "region": "تهران، استان تهران",
            "neighbourhood": "محله ارگ - پامنار",
            "location": {
                "x": 51.42006653376882,
                "y": 35.679155376414116,
                "z": "NaN"
            }
        },
        {
            "title": "موزه عكسخانه",
            "address": "ناصرخسرو، 15 خرداد، میدان 15 خرداد",
            "category": "place",
            "type": "museum",
            "region": "تهران، استان تهران",
            "neighbourhood": "محله ارگ - پامنار",
            "location": {
                "x": 51.420001387596095,
                "y": 35.67924684922751,
                "z": "NaN"
            }
        },
        {
            "title": "موزه نگارخانه",
            "address": "ناصرخسرو، 15 خرداد، میدان 15 خرداد",
            "category": "place",
            "type": "museum",
            "region": "تهران، استان تهران",
            "neighbourhood": "محله ارگ - پامنار",
            "location": {
                "x": 51.41984927483865,
                "y": 35.67928610112926,
                "z": "NaN"
            }
        },
        {
            "title": "موزه گمرک ایران",
            "address": "فردوسی، بانک مسکن، بهنیا",
            "category": "place",
            "type": "museum",
            "region": "تهران، استان تهران",
            "neighbourhood": "محله فردوسی",
            "location": {
                "x": 51.418392727312224,
                "y": 35.68879277111901,
                "z": "NaN"
            }
        },
        {
            "title": "موزه تاریخ مفاخر باغ نگارستان",
            "address": "مصطفی خمینی، کمال الملک، نیکخو",
            "category": "place",
            "type": "museum",
            "region": "تهران، استان تهران",
            "neighbourhood": "محله بهارستان",
            "location": {
                "x": 51.43268459276984,
                "y": 35.69442021757301,
                "z": "NaN"
            }
        },
        {
            "title": "موزه کتاب آرایی ملک",
            "address": "ناصرخسرو، 15 خرداد، بین الحرمین",
            "category": "place",
            "type": "museum",
            "region": "تهران، استان تهران",
            "neighbourhood": "محله بازار تهران",
            "location": {
                "x": 51.42389773653784,
                "y": 35.675889989451996,
                "z": "NaN"
            }
        },
        {
            "title": "خانه موزه شهید دکتر چمران",
            "address": "مصطفی خمینی، حمام چال، غفاری، بشیری",
            "category": "place",
            "type": "museum",
            "region": "تهران، استان تهران",
            "neighbourhood": "محله بازار تهران",
            "location": {
                "x": 51.4285692,
                "y": 35.6746325,
                "z": "NaN"
            }
        },
        {
            "title": "باغ موزه نگارستان",
            "address": "بهارستان، دانشسرا، شریعتمدار رفیع",
            "category": "place",
            "type": "museum",
            "region": "تهران، استان تهران",
            "neighbourhood": "محله بهارستان",
            "location": {
                "x": 51.432935051224874,
                "y": 35.69497626856969,
                "z": "NaN"
            }
        },
        {
            "title": "موزه بانک ملی ایران",
            "address": "فردوسی",
            "category": "place",
            "type": "museum",
            "region": "تهران، استان تهران",
            "neighbourhood": "محله فردوسی",
            "location": {
                "x": 51.419632199999995,
                "y": 35.6920819,
                "z": "NaN"
            }
        },
        {
            "title": "خانه موزه مهدی اخوان ثالث",
            "address": "دکتر فاطمی، دائمی، خجسته",
            "category": "place",
            "type": "museum",
            "region": "تهران، استان تهران",
            "neighbourhood": "محله کشاورز - پارک لاله",
            "location": {
                "x": 51.40014685969893,
                "y": 35.716376306831876,
                "z": "NaN"
            }
        },
        {
            "title": "موزه سیار خلاقیت کودک و نوجوان",
            "address": "کریمخان زند، عضدی (آبان)، واعظی",
            "category": "place",
            "type": "museum",
            "region": "تهران، استان تهران",
            "neighbourhood": "محله ولیعصر",
            "location": {
                "x": 51.41315383963946,
                "y": 35.714491985297116,
                "z": "NaN"
            }
        },
        {
            "title": "خانه موزه چمن آرا (بتهوون)",
            "address": "میرزای شیرازی، یازدهم",
            "category": "place",
            "type": "museum",
            "region": "تهران، استان تهران",
            "neighbourhood": "محله قائم مقام - سنائی",
            "location": {
                "x": 51.416019919965606,
                "y": 35.7186916863012,
                "z": "NaN"
            }
        },
        {
            "title": "موزه ملی هنر و ادبیات کودک",
            "address": "دکتر فاطمی، حجاب",
            "category": "place",
            "type": "museum",
            "region": "تهران، استان تهران",
            "neighbourhood": "محله کشاورز - پارک لاله",
            "location": {
                "x": 51.39429500766747,
                "y": 35.71422280183304,
                "z": "NaN"
            }
        },
        {
            "title": "موزه علوم و فناوری",
            "address": "قرنی، استاد شهری، سهند",
            "category": "place",
            "type": "museum",
            "region": "تهران، استان تهران",
            "neighbourhood": "محله ولیعصر",
            "location": {
                "x": 51.414530299999996,
                "y": 35.7115188,
                "z": "NaN"
            }
        },
        {
            "title": "موزه فرش ایران",
            "address": "دکتر فاطمی",
            "category": "place",
            "type": "museum",
            "region": "تهران، استان تهران",
            "neighbourhood": "محله کشاورز - پارک لاله",
            "location": {
                "x": 51.3908475,
                "y": 35.7142108,
                "z": "NaN"
            }
        },
        {
            "title": "موزه تصاویر معاصر",
            "address": "بلوار کشاورز، وصال شیرازی، شیرین بیانی (مریم)",
            "category": "place",
            "type": "museum",
            "region": "تهران، استان تهران",
            "neighbourhood": "محله دانشگاه تهران",
            "location": {
                "x": 51.39826066688743,
                "y": 35.70732417789648,
                "z": "NaN"
            }
        },
        {
            "title": "موزه خیمه شب بازی",
            "address": "بلوار کشاورز، وصال شیرازی، دکتر اسلامی ندوشن",
            "category": "place",
            "type": "museum",
            "region": "تهران، استان تهران",
            "neighbourhood": "محله دانشگاه تهران",
            "location": {
                "x": 51.396874417138676,
                "y": 35.7077876491734,
                "z": "NaN"
            }
        },
        {
            "title": "موزه ماشین های اداری سفیر",
            "address": "قرنی، کلانتری",
            "category": "place",
            "type": "museum",
            "region": "تهران، استان تهران",
            "neighbourhood": "محله ایرانشهر",
            "location": {
                "x": 51.419047218852,
                "y": 35.71318697250516,
                "z": "NaN"
            }
        },
        {
            "title": "موزه هنرهای معاصر تهران",
            "address": "دکتر فاطمی، کارگر شمالی",
            "category": "place",
            "type": "museum",
            "region": "تهران، استان تهران",
            "neighbourhood": "محله کشاورز - پارک لاله",
            "location": {
                "x": 51.39033932794178,
                "y": 35.71103067509112,
                "z": "NaN"
            }
        },
        {
            "title": "موزه هنرهای معاصر فلسطین",
            "address": "انقلاب اسلامی، برادران مظفر شمالی",
            "category": "place",
            "type": "museum",
            "region": "تهران، استان تهران",
            "neighbourhood": "محله دانشگاه تهران",
            "location": {
                "x": 51.4044385994687,
                "y": 35.704308551354586,
                "z": "NaN"
            }
        },
        {
            "title": "موزه جانور شناسی",
            "address": "بلوار کشاورز، قدس",
            "category": "place",
            "type": "museum",
            "region": "تهران، استان تهران",
            "neighbourhood": "محله دانشگاه تهران",
            "location": {
                "x": 51.396563421884,
                "y": 35.70502484399626,
                "z": "NaN"
            }
        },
        {
            "title": "موزه تاریخ علوم پزشکی",
            "address": "بزرگراه جلال آل احمد، کارگر شمالی، مدرسه",
            "category": "place",
            "type": "museum",
            "region": "تهران، استان تهران",
            "neighbourhood": "محله قزل قلعه",
            "location": {
                "x": 51.3894648,
                "y": 35.731009799999995,
                "z": "NaN"
            }
        },
        {
            "title": "خانه موزه دکتر شریعتی",
            "address": "دکتر فاطمی، جمالزاده شمالی، نادر",
            "category": "place",
            "type": "museum",
            "region": "تهران، استان تهران",
            "neighbourhood": "محله جمال زاده",
            "location": {
                "x": 51.384426522012745,
                "y": 35.712138391355666,
                "z": "NaN"
            }
        },
        {
            "title": "موزه تمبرهای طلا و نقره ایران",
            "address": "قرنی، سمیه",
            "category": "place",
            "type": "museum",
            "region": "تهران، استان تهران",
            "neighbourhood": "محله ایرانشهر",
            "location": {
                "x": 51.41926532027198,
                "y": 35.7054803610192,
                "z": "NaN"
            }
        },
        {
            "title": "موزه شهدا",
            "address": "قرنی، طالقانی",
            "category": "place",
            "type": "museum",
            "region": "تهران، استان تهران",
            "neighbourhood": "محله ایرانشهر",
            "location": {
                "x": 51.42139410000001,
                "y": 35.70674330000001,
                "z": "NaN"
            }
        },
        {
            "title": "خانه موزه دکتر سندوزی",
            "address": "بزرگراه مدرس، بیهقی، دوازدهم غربی (رمضان)",
            "category": "place",
            "type": "museum",
            "region": "تهران، استان تهران",
            "neighbourhood": "محله آرژانتین - ساعی",
            "location": {
                "x": 51.418539751127796,
                "y": 35.73370646450525,
                "z": "NaN"
            }
        },
        {
            "title": "موزه و مجتمع فرهنگی 13 آبان",
            "address": "مفتح جنوبی، طالقانی",
            "category": "place",
            "type": "museum",
            "region": "تهران، استان تهران",
            "neighbourhood": "محله ایرانشهر",
            "location": {
                "x": 51.42367111536159,
                "y": 35.70756260130128,
                "z": "NaN"
            }
        },
        {
            "title": "خانه موزه هایده چنگیزیان",
            "address": "ولیعصر، هاشمی فر، هانری کوربن، اول",
            "category": "place",
            "type": "museum",
            "region": "تهران، استان تهران",
            "neighbourhood": "محله شیخ هادی",
            "location": {
                "x": 51.40790457131348,
                "y": 35.697632734595715,
                "z": "NaN"
            }
        },
        {
            "title": "موزه عکاس خانه شهر",
            "address": "سهروردی جنوبی، بهار شیراز",
            "category": "place",
            "type": "museum",
            "region": "تهران، استان تهران",
            "neighbourhood": "محله امجدیه - خاقانی",
            "location": {
                "x": 51.4317569,
                "y": 35.71772689999999,
                "z": "NaN"
            }
        },
        {
            "title": "خانه ابتهاج",
            "address": "فردوسی، تقوی، انوشیروانی",
            "category": "place",
            "type": "museum",
            "region": "تهران، استان تهران",
            "neighbourhood": "محله فردوسی",
            "location": {
                "x": 51.420565700000004,
                "y": 35.7000701,
                "z": "NaN"
            }
        },
        {
            "title": "موزه اسباب بازی",
            "address": "حافظ، ازهری، لولاگر",
            "category": "place",
            "type": "museum",
            "region": "تهران، استان تهران",
            "neighbourhood": "محله شیخ هادی",
            "location": {
                "x": 51.41128828458967,
                "y": 35.69659033474859,
                "z": "NaN"
            }
        },
        {
            "title": "خانه استاد حسین بهزاد",
            "address": "جمهوری اسلامی، نوفَلاح",
            "category": "place",
            "type": "museum",
            "region": "تهران، استان تهران",
            "neighbourhood": "محله جمالزاده",
            "location": {
                "x": 51.38764983102325,
                "y": 35.699019740002306,
                "z": "NaN"
            }
        },
        {
            "title": "موزه عروسک و فرهنگ",
            "address": "سعدی شمالی، رفیعی",
            "category": "place",
            "type": "museum",
            "region": "تهران، استان تهران",
            "neighbourhood": "محله فردوسی",
            "location": {
                "x": 51.42525508151051,
                "y": 35.70126428297882,
                "z": "NaN"
            }
        },
        {
            "title": "موزه مردم شناسی ارامنه (موزه اسقف اعظم آرداک مانوکیان)",
            "address": "جمهوری اسلامی، مسعود سعد",
            "category": "place",
            "type": "museum",
            "region": "تهران، استان تهران",
            "neighbourhood": "محله فردوسی",
            "location": {
                "x": 51.414947000000005,
                "y": 35.6959714,
                "z": "NaN"
            }
        },
        {
            "title": "موزه پمپ بنزین دروازه دولت",
            "address": "سعدی شمالی، فیات",
            "category": "place",
            "type": "museum",
            "region": "تهران، استان تهران",
            "neighbourhood": "محله فردوسی",
            "location": {
                "x": 51.42580032348633,
                "y": 35.70111538288022,
                "z": "NaN"
            }
        },
        {
            "title": "موزه علوم و فنون جمهوری اسلامی ایران",
            "address": "ولیعصر، یاس",
            "category": "place",
            "type": "museum",
            "region": "تهران، استان تهران",
            "neighbourhood": "محله گاندی",
            "location": {
                "x": 51.4112768,
                "y": 35.74363,
                "z": "NaN"
            }
        },
        {
            "title": "خانه موزه استاد لر زاده",
            "address": "شریعتی، خداپرست",
            "category": "place",
            "type": "museum",
            "region": "تهران، استان تهران",
            "neighbourhood": "محله بهار",
            "location": {
                "x": 51.436778,
                "y": 35.71405539999999,
                "z": "NaN"
            }
        },
        {
            "title": "موزه آبگینه و سفالینه های ایران (خانه قوام السلطنه)",
            "address": "جمهوری اسلامی، سی تیر",
            "category": "place",
            "type": "museum",
            "region": "تهران، استان تهران",
            "neighbourhood": "محله فردوسی",
            "location": {
                "x": 51.414442199999996,
                "y": 35.69345339999999,
                "z": "NaN"
            }
        },
        {
            "title": "موزه خوشنویسی",
            "address": "شریعتی، فولادوند",
            "category": "place",
            "type": "museum",
            "region": "تهران، استان تهران",
            "neighbourhood": "محله خواجه نصیر - حقوقی",
            "location": {
                "x": 51.432477733333336,
                "y": 35.703898166666654,
                "z": "NaN"
            }
        },
        {
            "title": "موزه و نمایشگاه هوایی",
            "category": "place",
            "type": "museum",
            "region": "تهران، استان تهران",
            "neighbourhood": "محله اکباتان",
            "location": {
                "x": 51.293708393952556,
                "y": 35.714877684772304,
                "z": "NaN"
            }
        },
        {
            "title": "موزه علوم زمین",
            "address": "بزرگراه لشگری، معراج",
            "category": "place",
            "type": "museum",
            "region": "تهران، استان تهران",
            "neighbourhood": "محله فرودگاه مهرآباد",
            "location": {
                "x": 51.33126033011649,
                "y": 35.69641131623415,
                "z": "NaN"
            }
        },
        {
            "title": "موزه آشور ارومیه",
            "address": "بزرگراه باکری، شهید اردوشاهی",
            "category": "place",
            "type": "museum",
            "region": "تهران، استان تهران",
            "neighbourhood": "محله شهر زیبا",
            "location": {
                "x": 51.29310901450854,
                "y": 35.74889817728779,
                "z": "NaN"
            }
        },
        {
            "title": "موزه برج آزادی (تالار کهن)",
            "address": "آزادی، میدان آزادی",
            "category": "place",
            "type": "museum",
            "region": "تهران، استان تهران",
            "neighbourhood": "محله استاد معین",
            "location": {
                "x": 51.338635604907054,
                "y": 35.699744938497204,
                "z": "NaN"
            }
        },
        {
            "title": "خانه موزه شهید مهدی پور",
            "address": "گلها، نرگس غربی",
            "category": "place",
            "type": "museum",
            "region": "تهران، استان تهران",
            "neighbourhood": "محله زیبادشت",
            "location": {
                "x": 51.259171058395275,
                "y": 35.74850154901686,
                "z": "NaN"
            }
        },
        {
            "title": "موزه دانشگاه علامه طباطبائی",
            "address": "دهکده المپیک، ورزش، ورزش غربی",
            "category": "place",
            "type": "museum",
            "region": "تهران، استان تهران",
            "neighbourhood": "محله دهکده المپیک",
            "location": {
                "x": 51.261665226504014,
                "y": 35.76018228779778,
                "z": "NaN"
            }
        },
        {
            "title": "موزه شهیدان اقبالی",
            "address": "سبحانی، کمیل",
            "category": "place",
            "type": "museum",
            "region": "تهران، استان تهران",
            "neighbourhood": "محله هاشمی",
            "location": {
                "x": 51.35864199659451,
                "y": 35.680311869436025,
                "z": "NaN"
            }
        },
        {
            "title": "موزه حیات وحش پردیسان",
            "address": "بزرگراه شیخ فضل الله نوری، شیخ فضل الله، بزرگراه شهید همت",
            "category": "place",
            "type": "museum",
            "region": "تهران، استان تهران",
            "neighbourhood": "محله پردیسان",
            "location": {
                "x": 51.363905744444274,
                "y": 35.746745973327116,
                "z": "NaN"
            }
        },
        {
            "title": "موزه تنوع زیستی",
            "address": "بزرگراه شیخ فضل الله نوری، شیخ فضل الله، بزرگراه شهید همت",
            "category": "place",
            "type": "museum",
            "region": "تهران، استان تهران",
            "neighbourhood": "محله پردیسان",
            "location": {
                "x": 51.363575067469434,
                "y": 35.74723748196776,
                "z": "NaN"
            }
        },
        {
            "title": "موزه ملی آب",
            "address": "بزرگراه شیخ فضل الله نوری، شیخ فضل الله، بزرگراه شهید همت",
            "category": "place",
            "type": "museum",
            "region": "تهران، استان تهران",
            "neighbourhood": "محله پردیسان",
            "location": {
                "x": 51.36358949878315,
                "y": 35.747275218678006,
                "z": "NaN"
            }
        },
        {
            "title": "موزه خودروهای تاریخی ایران",
            "address": "بزرگراه لشگری، بیست و پنجم",
            "category": "place",
            "type": "museum",
            "region": "تهران، استان تهران",
            "neighbourhood": "شهرک استقلال",
            "location": {
                "x": 51.2219176,
                "y": 35.7142222,
                "z": "NaN"
            }
        },
        {
            "title": "موزه مبل",
            "address": "یافت آباد",
            "category": "place",
            "type": "museum",
            "region": "تهران، استان تهران",
            "neighbourhood": "محله یافت آباد شمالی",
            "location": {
                "x": 51.351409621826875,
                "y": 35.66302800007659,
                "z": "NaN"
            }
        },
        {
            "title": "موزه شهرداری برج میلاد",
            "address": "بزرگراه شهید همت، میدان آرش",
            "category": "place",
            "type": "museum",
            "region": "تهران، استان تهران",
            "neighbourhood": "کوی نصر",
            "location": {
                "x": 51.37520561162957,
                "y": 35.744534961571155,
                "z": "NaN"
            }
        },
        {
            "title": "موزه مشاهیر برج میلاد",
            "address": "بزرگراه شهید همت، میدان آرش",
            "category": "place",
            "type": "museum",
            "region": "تهران، استان تهران",
            "neighbourhood": "کوی نصر",
            "location": {
                "x": 51.375531107943715,
                "y": 35.74458528657385,
                "z": "NaN"
            }
        },
        {
            "title": "خانه موزه دکتر شریعتی",
            "address": "دکتر فاطمی، جمالزاده شمالی، نادر",
            "category": "place",
            "type": "museum",
            "region": "تهران، استان تهران",
            "neighbourhood": "محله جمال زاده",
            "location": {
                "x": 51.384426522012745,
                "y": 35.712138391355666,
                "z": "NaN"
            }
        },
        {
            "title": "موزه حیات وحش و آثار طبیعی هفت چنار",
            "address": "دعوتی، بشیری",
            "category": "place",
            "type": "museum",
            "region": "تهران، استان تهران",
            "neighbourhood": "محله هفت چنار",
            "location": {
                "x": 51.37290802784878,
                "y": 35.67629531650083,
                "z": "NaN"
            }
        },
        {
            "title": "خانه استاد حسین بهزاد",
            "address": "جمهوری اسلامی، نوفَلاح",
            "category": "place",
            "type": "museum",
            "region": "تهران، استان تهران",
            "neighbourhood": "محله جمالزاده",
            "location": {
                "x": 51.38764983102325,
                "y": 35.699019740002306,
                "z": "NaN"
            }
        },
        {
            "title": "موزه هنرهای معاصر تهران",
            "address": "دکتر فاطمی، کارگر شمالی",
            "category": "place",
            "type": "museum",
            "region": "تهران، استان تهران",
            "neighbourhood": "محله کشاورز - پارک لاله",
            "location": {
                "x": 51.39033932794178,
                "y": 35.71103067509112,
                "z": "NaN"
            }
        },
        {
            "title": "خانه تیمورتاش (موزه دانشگاه جنگ)",
            "category": "place",
            "type": "museum",
            "region": "تهران، استان تهران",
            "neighbourhood": "محله حر",
            "location": {
                "x": 51.38521680000003,
                "y": 35.69058929999997,
                "z": "NaN"
            }
        },
        {
            "title": "موزه فرش ایران",
            "address": "دکتر فاطمی",
            "category": "place",
            "type": "museum",
            "region": "تهران، استان تهران",
            "neighbourhood": "محله کشاورز - پارک لاله",
            "location": {
                "x": 51.3908475,
                "y": 35.7142108,
                "z": "NaN"
            }
        },
        {
            "title": "کاخ تیمورتاش",
            "address": "جمهوری اسلامی، استاد طاهر بهزاد، میدان جنگ",
            "category": "place",
            "type": "museum",
            "region": "تهران، استان تهران",
            "neighbourhood": "محله حر",
            "location": {
                "x": 51.38630345601356,
                "y": 35.69144020222148,
                "z": "NaN"
            }
        },
        {
            "title": "موزه تاریخ علوم پزشکی",
            "address": "بزرگراه جلال آل احمد، کارگر شمالی، مدرسه",
            "category": "place",
            "type": "museum",
            "region": "تهران، استان تهران",
            "neighbourhood": "محله قزل قلعه",
            "location": {
                "x": 51.3894648,
                "y": 35.731009799999995,
                "z": "NaN"
            }
        },
        {
            "title": "موزه شهدا",
            "address": "معلم، آقایی، شهدای دانش آموز",
            "category": "place",
            "type": "museum",
            "region": "تهران، استان تهران",
            "neighbourhood": "شهرک ولیعصر جنوبی",
            "location": {
                "x": 51.33431549999999,
                "y": 35.644480699999995,
                "z": "NaN"
            }
        },
        {
            "title": "موزه ملی هنر و ادبیات کودک",
            "address": "دکتر فاطمی، حجاب",
            "category": "place",
            "type": "museum",
            "region": "تهران، استان تهران",
            "neighbourhood": "محله کشاورز - پارک لاله",
            "location": {
                "x": 51.39429500766747,
                "y": 35.71422280183304,
                "z": "NaN"
            }
        },
        {
            "title": "خانه موزه شهیدان کربلایی",
            "address": "شیخ محمدی، کربلایی",
            "category": "place",
            "type": "museum",
            "region": "تهران، استان تهران",
            "neighbourhood": "محله بلورسازی",
            "location": {
                "x": 51.376974400000016,
                "y": 35.66761799999999,
                "z": "NaN"
            }
        },
        {
            "title": "موزه خیمه شب بازی",
            "address": "بلوار کشاورز، وصال شیرازی، دکتر اسلامی ندوشن",
            "category": "place",
            "type": "museum",
            "region": "تهران، استان تهران",
            "neighbourhood": "محله دانشگاه تهران",
            "location": {
                "x": 51.396874417138676,
                "y": 35.7077876491734,
                "z": "NaN"
            }
        },
        {
            "title": "موزه جانور شناسی",
            "address": "بلوار کشاورز، قدس",
            "category": "place",
            "type": "museum",
            "region": "تهران، استان تهران",
            "neighbourhood": "محله دانشگاه تهران",
            "location": {
                "x": 51.396563421884,
                "y": 35.70502484399626,
                "z": "NaN"
            }
        },
        {
            "title": "موزه تصاویر معاصر",
            "address": "بلوار کشاورز، وصال شیرازی، شیرین بیانی (مریم)",
            "category": "place",
            "type": "museum",
            "region": "تهران، استان تهران",
            "neighbourhood": "محله دانشگاه تهران",
            "location": {
                "x": 51.39826066688743,
                "y": 35.70732417789648,
                "z": "NaN"
            }
        },
        {
            "title": "خانه موزه مهدی اخوان ثالث",
            "address": "دکتر فاطمی، دائمی، خجسته",
            "category": "place",
            "type": "museum",
            "region": "تهران، استان تهران",
            "neighbourhood": "محله کشاورز - پارک لاله",
            "location": {
                "x": 51.40014685969893,
                "y": 35.716376306831876,
                "z": "NaN"
            }
        },
        {
            "title": "نمایشگاه موشکی نیروی هوا فضا سپاه",
            "address": "شهرک دانشگاه",
            "category": "place",
            "type": "museum",
            "region": "تهران، استان تهران",
            "neighbourhood": "شهرک دانشگاه تهران",
            "location": {
                "x": 51.20167176683735,
                "y": 35.70474054551679,
                "z": "NaN"
            }
        },
        {
            "title": "موزه عبدالعظیم حسنی",
            "address": "فدایی",
            "category": "place",
            "type": "museum",
            "region": "ری، استان تهران",
            "neighbourhood": "محله هاشم آباد",
            "location": {
                "x": 51.436730499999996,
                "y": 35.5849922,
                "z": "NaN"
            }
        },
        {
            "title": "ایستگاه اتوبوس موزه صنعت معدن",
            "address": "بزرگراه امام علی، معدن",
            "category": "place",
            "type": "bus_station",
            "region": "ری، استان تهران",
            "neighbourhood": "محله شهادت",
            "location": {
                "x": 51.45132254042879,
                "y": 35.60916184445094,
                "z": "NaN"
            }
        },
        {
            "title": "ایستگاه اتوبوس موزه صنعت معدن",
            "address": "بزرگراه امام علی، معدن",
            "category": "place",
            "type": "bus_station",
            "region": "ری، استان تهران",
            "neighbourhood": "محله صفاییه",
            "location": {
                "x": 51.45211570167295,
                "y": 35.60885655195947,
                "z": "NaN"
            }
        },
        {
            "title": "سیمان ری (کارخانه متروکه)",
            "category": "place",
            "type": "factory",
            "region": "ری، استان تهران",
            "neighbourhood": "محله صفاییه",
            "location": {
                "x": 51.45239651424195,
                "y": 35.607547766646825,
                "z": "NaN"
            }
        },
        {
            "title": "موزه‌ها و مرکز اسناد صنعت نفت",
            "address": "بلوار شهید رجایی، بلوار پژوهشگاه صنعت نفت، انبار نفت",
            "category": "place",
            "type": "museum",
            "region": "بخش کهریزک، شهرستان ری، استان تهران",
            "location": {
                "x": 51.42684830981046,
                "y": 35.55352571672404,
                "z": "NaN"
            }
        },
        {
            "title": "موزه عمارت انیس الدوله",
            "address": "ولیعصر",
            "category": "place",
            "type": "museum",
            "region": "تهران، استان تهران",
            "neighbourhood": "محله قلمستان - براداران جوادیان",
            "location": {
                "x": 51.39929535390395,
                "y": 35.66825782652357,
                "z": "NaN"
            }
        },
        {
            "title": "موزه حمام قبله (حمام خانم)",
            "address": "بزرگراه محلاتی، 15 خرداد، حمام قبله",
            "category": "place",
            "type": "museum",
            "region": "تهران، استان تهران",
            "neighbourhood": "محله بازار تهران",
            "location": {
                "x": 51.43464583414242,
                "y": 35.67442674174507,
                "z": "NaN"
            }
        },
        {
            "title": "خانه موزه شهید دکتر چمران",
            "address": "مصطفی خمینی، حمام چال، غفاری، بشیری",
            "category": "place",
            "type": "museum",
            "region": "تهران، استان تهران",
            "neighbourhood": "محله بازار تهران",
            "location": {
                "x": 51.4285692,
                "y": 35.6746325,
                "z": "NaN"
            }
        },
        {
            "title": "موزه شهید قدمی",
            "address": "ایروانی رباط کریم، فاتح چهر، صالحی",
            "category": "place",
            "type": "museum",
            "region": "تهران، استان تهران",
            "neighbourhood": "محله عباسی",
            "location": {
                "x": 51.387733103792144,
                "y": 35.66508499232911,
                "z": "NaN"
            }
        },
        {
            "title": "موزه کتاب آرایی ملک",
            "address": "ناصرخسرو، 15 خرداد، بین الحرمین",
            "category": "place",
            "type": "museum",
            "region": "تهران، استان تهران",
            "neighbourhood": "محله بازار تهران",
            "location": {
                "x": 51.42389773653784,
                "y": 35.675889989451996,
                "z": "NaN"
            }
        },
        {
            "title": "موزه عمارت کاظمی",
            "address": "ری، نعیمی سپهر، امامزاده یحیی، طهماسبی",
            "category": "place",
            "type": "museum",
            "region": "تهران، استان تهران",
            "neighbourhood": "محله امام زاده یحیی",
            "location": {
                "x": 51.434168799999995,
                "y": 35.677682499999996,
                "z": "NaN"
            }
        },
        {
            "title": "موزه مفاخر",
            "address": "ولیعصر، بشیری",
            "category": "place",
            "type": "museum",
            "region": "تهران، استان تهران",
            "neighbourhood": "محله امیریه",
            "location": {
                "x": 51.40317400775798,
                "y": 35.675352526595496,
                "z": "NaN"
            }
        },
        {
            "title": "عمارت بادگیر",
            "address": "ناصرخسرو، 15 خرداد، میدان 15 خرداد",
            "category": "place",
            "type": "museum",
            "region": "تهران، استان تهران",
            "neighbourhood": "محله ارگ - پامنار",
            "location": {
                "x": 51.421797420120505,
                "y": 35.679069584164225,
                "z": "NaN"
            }
        },
        {
            "title": "عمارت چادرخانه و عکسخانه",
            "address": "ناصرخسرو، 15 خرداد، میدان 15 خرداد",
            "category": "place",
            "type": "museum",
            "region": "تهران، استان تهران",
            "neighbourhood": "محله ارگ - پامنار",
            "location": {
                "x": 51.42127833998878,
                "y": 35.679023669462495,
                "z": "NaN"
            }
        },
        {
            "title": "حمام نواب",
            "address": "ری، نعیمی سپهر",
            "category": "place",
            "type": "museum",
            "region": "تهران، استان تهران",
            "neighbourhood": "محله امام زاده یحیی",
            "location": {
                "x": 51.4363518,
                "y": 35.6796649,
                "z": "NaN"
            }
        },
        {
            "title": "موزه مردم شناسی (کاخ ابیض)",
            "address": "ناصرخسرو، 15 خرداد، میدان 15 خرداد",
            "category": "place",
            "type": "museum",
            "region": "تهران، استان تهران",
            "neighbourhood": "محله ارگ - پامنار",
            "location": {
                "x": 51.42006653376882,
                "y": 35.679155376414116,
                "z": "NaN"
            }
        },
        {
            "title": "شمس العماره",
            "address": "سعدی جنوبی، ناصر خسرو",
            "category": "place",
            "type": "museum",
            "region": "تهران، استان تهران",
            "neighbourhood": "محله ارگ - پامنار",
            "location": {
                "x": 51.422101500000004,
                "y": 35.679401999999996,
                "z": "NaN"
            }
        },
        {
            "title": "موزه عكسخانه",
            "address": "ناصرخسرو، 15 خرداد، میدان 15 خرداد",
            "category": "place",
            "type": "museum",
            "region": "تهران، استان تهران",
            "neighbourhood": "محله ارگ - پامنار",
            "location": {
                "x": 51.420001387596095,
                "y": 35.67924684922751,
                "z": "NaN"
            }
        },
        {
            "title": "موزه مخصوص",
            "address": "خیام، 15 خرداد، میدان 15 خرداد",
            "category": "place",
            "type": "museum",
            "region": "تهران، استان تهران",
            "neighbourhood": "محله ارگ - پامنار",
            "location": {
                "x": 51.41999143191643,
                "y": 35.67928392238576,
                "z": "NaN"
            }
        },
        {
            "title": "موزه نگارخانه",
            "address": "ناصرخسرو، 15 خرداد، میدان 15 خرداد",
            "category": "place",
            "type": "museum",
            "region": "تهران، استان تهران",
            "neighbourhood": "محله ارگ - پامنار",
            "location": {
                "x": 51.41984927483865,
                "y": 35.67928610112926,
                "z": "NaN"
            }
        },
        {
            "title": "خلوت کریم خانی",
            "address": "ناصرخسرو، 15 خرداد، میدان 15 خرداد",
            "category": "place",
            "type": "museum",
            "region": "تهران، استان تهران",
            "neighbourhood": "محله ارگ - پامنار",
            "location": {
                "x": 51.42001710890327,
                "y": 35.68019918044208,
                "z": "NaN"
            }
        },
        {
            "title": "کاخ موزه گلستان",
            "address": "ناصرخسرو، 15 خرداد، میدان 15 خرداد",
            "category": "place",
            "type": "museum",
            "region": "تهران، استان تهران",
            "neighbourhood": "محله ارگ - پامنار",
            "location": {
                "x": 51.42054945230485,
                "y": 35.680339627522386,
                "z": "NaN"
            }
        },
        {
            "title": "کاخ برلیان",
            "address": "ناصرخسرو، 15 خرداد، میدان 15 خرداد",
            "category": "place",
            "type": "museum",
            "region": "تهران، استان تهران",
            "neighbourhood": "محله ارگ - پامنار",
            "location": {
                "x": 51.421260962276754,
                "y": 35.68042581178912,
                "z": "NaN"
            }
        },
        {
            "title": "تالار ظروف",
            "address": "ناصرخسرو، 15 خرداد، میدان 15 خرداد",
            "category": "place",
            "type": "museum",
            "region": "تهران، استان تهران",
            "neighbourhood": "محله ارگ - پامنار",
            "location": {
                "x": 51.42087946966326,
                "y": 35.680406443181916,
                "z": "NaN"
            }
        },
        {
            "title": "موزه حوضخانه",
            "address": "ناصرخسرو، 15 خرداد، میدان 15 خرداد",
            "category": "place",
            "type": "museum",
            "region": "تهران، استان تهران",
            "neighbourhood": "محله ارگ - پامنار",
            "location": {
                "x": 51.42050027847291,
                "y": 35.68042989874195,
                "z": "NaN"
            }
        },
        {
            "title": "تالار سلام",
            "address": "ناصرخسرو، 15 خرداد، میدان 15 خرداد",
            "category": "place",
            "type": "museum",
            "region": "تهران، استان تهران",
            "neighbourhood": "محله ارگ - پامنار",
            "location": {
                "x": 51.42020268083334,
                "y": 35.68045133089024,
                "z": "NaN"
            }
        },
        {
            "title": "خانه موزه شهید مدرس",
            "address": "امیرکبیر، جاویدی، مدرس",
            "category": "place",
            "type": "museum",
            "region": "تهران، استان تهران",
            "neighbourhood": "محله امام زاده یحیی",
            "location": {
                "x": 51.43407285310901,
                "y": 35.68142470073209,
                "z": "NaN"
            }
        },
        {
            "title": "خانه موزه شهیدان کربلایی",
            "address": "شیخ محمدی، کربلایی",
            "category": "place",
            "type": "museum",
            "region": "تهران، استان تهران",
            "neighbourhood": "محله بلورسازی",
            "location": {
                "x": 51.376974400000016,
                "y": 35.66761799999999,
                "z": "NaN"
            }
        },
        {
            "title": "موزه دخانیات ایران",
            "address": "نواب صفوی، قزوین",
            "category": "place",
            "type": "museum",
            "region": "تهران، استان تهران",
            "neighbourhood": "محله خرمشهر",
            "location": {
                "x": 51.38690700153604,
                "y": 35.67325732136842,
                "z": "NaN"
            }
        },
        {
            "title": "موزه تاریخ روانپزشکی روزبه",
            "address": "کارگر جنوبی",
            "category": "place",
            "type": "museum",
            "region": "تهران، استان تهران",
            "neighbourhood": "محله مخصوص",
            "location": {
                "x": 51.39394638167189,
                "y": 35.678666737400555,
                "z": "NaN"
            }
        }
    ]
}