{
    "items": [
        {
            "title": "آرامستان تاریخی مسیحیان دولاب",
            "category": "place",
            "type": "historical",
            "region": "تهران، استان تهران",
            "neighbourhood": "محله شکیبا",
            "location": {
                "x": 51.47025848372447,
                "y": 35.67586817813384,
                "z": "NaN"
            }
        },
        {
            "title": "عمارت تاریخی کلاه فرنگی عشرت آباد",
            "address": "سپاه، بزرگراه شهید صیاد شیرازی",
            "category": "place",
            "type": "historical",
            "region": "تهران، استان تهران",
            "neighbourhood": "محله کاج",
            "location": {
                "x": 51.44158950000002,
                "y": 35.709454500000014,
                "z": "NaN"
            }
        },
        {
            "title": "کودکستان تاریخی برسابه",
            "address": "جمهوری اسلامی، شیرازی، برسابه",
            "category": "place",
            "type": "historical",
            "region": "تهران، استان تهران",
            "neighbourhood": "محله بهارستان",
            "location": {
                "x": 51.42911965029056,
                "y": 35.690335917469135,
                "z": "NaN"
            }
        },
        {
            "title": "عمارت سرهنگ ایرج (خانه تاریخی پامنار)",
            "address": "مصطفی خمینی، خلیلی مفرد، پامنار، شهید صوفیانی",
            "category": "place",
            "type": "historical",
            "region": "تهران، استان تهران",
            "neighbourhood": "محله ارگ - پامنار",
            "location": {
                "x": 51.425946499999995,
                "y": 35.6827657,
                "z": "NaN"
            }
        },
        {
            "title": "برجک تاریخی زندان قصر",
            "address": "بزرگراه شهید صیاد شیرازی، پلیس، شهید محمد اسماعیل، مرودشت",
            "category": "place",
            "type": "historical",
            "region": "تهران، استان تهران",
            "neighbourhood": "محله قصر",
            "location": {
                "x": 51.44953078532126,
                "y": 35.72549665487542,
                "z": "NaN"
            }
        },
        {
            "title": "عمارت امین السلطان (خانه تاریخی اتحادیه)",
            "address": "جمهوری اسلامی، لاله زار، اتحادیه",
            "category": "place",
            "type": "historical",
            "region": "تهران، استان تهران",
            "neighbourhood": "محله فردوسی",
            "location": {
                "x": 51.42184491366191,
                "y": 35.690829321698935,
                "z": "NaN"
            }
        },
        {
            "title": "بازارچه تاریخی عودلاجان",
            "address": "مصطفی خمینی، 15 خرداد، بازارچه عودلاجان",
            "category": "place",
            "type": "historical",
            "region": "تهران، استان تهران",
            "neighbourhood": "محله ارگ - پامنار",
            "location": {
                "x": 51.42720347094931,
                "y": 35.67658969398698,
                "z": "NaN"
            }
        },
        {
            "title": "عمارت تاریخی امام جمعه",
            "address": "سعدی جنوبی، ناظم الاطبا، بهبهانی",
            "category": "place",
            "type": "historical",
            "region": "تهران، استان تهران",
            "neighbourhood": "محله ارگ - پامنار",
            "location": {
                "x": 51.42374306917191,
                "y": 35.682285050645,
                "z": "NaN"
            }
        },
        {
            "title": "مدرسه تاریخی دارالفنون",
            "address": "امام خمینی، باب همایون، قنات",
            "category": "place",
            "type": "historical",
            "region": "تهران، استان تهران",
            "neighbourhood": "محله ارگ - پامنار",
            "location": {
                "x": 51.42186752202415,
                "y": 35.68379663270575,
                "z": "NaN"
            }
        },
        {
            "title": "خانه تاریخی ملک",
            "address": "ناصرخسرو، 15 خرداد، بین الحرمین",
            "category": "place",
            "type": "historical",
            "region": "تهران، استان تهران",
            "neighbourhood": "محله بازار تهران",
            "location": {
                "x": 51.42367073506587,
                "y": 35.67593678805243,
                "z": "NaN"
            }
        },
        {
            "title": "عمارت تاریخی کوچه هفت تن",
            "address": "هفت تن",
            "category": "place",
            "type": "historical",
            "region": "تهران، استان تهران",
            "neighbourhood": "محله بازار تهران",
            "location": {
                "x": 51.42322935015089,
                "y": 35.672299615939515,
                "z": "NaN"
            }
        },
        {
            "title": "سرای باستانی",
            "address": "صاحب جمع، انبار گندم",
            "category": "place",
            "type": "historical",
            "region": "تهران، استان تهران",
            "neighbourhood": "محله شهید هرندی",
            "location": {
                "x": 51.430073510798266,
                "y": 35.66424219764665,
                "z": "NaN"
            }
        },
        {
            "title": "عمارت و باغ تاریخی اعلم السلطنه",
            "address": "حافظ، ایرانیان",
            "category": "place",
            "type": "historical",
            "region": "تهران، استان تهران",
            "neighbourhood": "محله شیخ هادی",
            "location": {
                "x": 51.410527190364924,
                "y": 35.69224039048775,
                "z": "NaN"
            }
        },
        {
            "title": "خانه تاریخی مستوفی الممالک",
            "address": "15 خرداد، بادامچی، کوی مستوفی",
            "category": "place",
            "type": "historical",
            "region": "تهران، استان تهران",
            "neighbourhood": "محله سنگلج",
            "location": {
                "x": 51.41472230577166,
                "y": 35.67658473950626,
                "z": "NaN"
            }
        },
        {
            "title": "خانه باستان شناسان ایران",
            "address": "خیام، کارکن اساسی",
            "category": "place",
            "type": "historical",
            "region": "تهران، استان تهران",
            "neighbourhood": "محله سنگلج",
            "location": {
                "x": 51.41556420234002,
                "y": 35.674233843919595,
                "z": "NaN"
            }
        },
        {
            "title": "باغ عمارت تاریخی معیرالممالک کیهانی",
            "address": "خیام، مهدویان احدی، کیهانی",
            "category": "place",
            "type": "historical",
            "region": "تهران، استان تهران",
            "neighbourhood": "محله سنگلج",
            "location": {
                "x": 51.4124849679057,
                "y": 35.6702245124635,
                "z": "NaN"
            }
        },
        {
            "title": "بازارچه تاریخی نایب آقا",
            "address": "ولیعصر، صداقت، محمودیان",
            "category": "place",
            "type": "historical",
            "region": "تهران، استان تهران",
            "neighbourhood": "محله فروزش - امیر بهادر",
            "location": {
                "x": 51.40176802867272,
                "y": 35.67089576827054,
                "z": "NaN"
            }
        },
        {
            "title": "اتش کده تاریخی به سمت کوه راگا",
            "category": "place",
            "type": "historical",
            "region": "شهرستان تهران، استان تهران",
            "location": {
                "x": 51.477519514133135,
                "y": 35.60425596634599,
                "z": "NaN"
            }
        },
        {
            "title": "قلعه باستانی عظیم آباد",
            "address": "شهید علی پریشانی",
            "category": "place",
            "type": "historical",
            "region": "شهرستان ری، استان تهران",
            "neighbourhood": "محله سیزده آبان",
            "location": {
                "x": 51.40616870160739,
                "y": 35.611288244338326,
                "z": "NaN"
            }
        },
        {
            "title": "خانه تاریخی علامه کرباسچیان",
            "address": "ده ونک، صابری، سوم",
            "category": "place",
            "type": "historical",
            "region": "تهران، استان تهران",
            "neighbourhood": "محله ونک",
            "location": {
                "x": 51.39227553071888,
                "y": 35.77049697976996,
                "z": "NaN"
            }
        },
        {
            "title": "عمارت تاریخی خسروشاهی",
            "address": "باهنر، منایی، حسن پور، امیر",
            "category": "place",
            "type": "historical",
            "region": "تهران، استان تهران",
            "neighbourhood": "محله جماران",
            "location": {
                "x": 51.4592222751249,
                "y": 35.817500212235615,
                "z": "NaN"
            }
        },
        {
            "title": "حمام تاریخی کن",
            "address": "بزرگراه شهید همت، الغدیر 1، زینعلى، باغیانی",
            "category": "place",
            "type": "historical",
            "region": "تهران، استان تهران",
            "neighbourhood": "محله کن",
            "location": {
                "x": 51.27876819318777,
                "y": 35.757623011037154,
                "z": "NaN"
            }
        },
        {
            "title": "پل تاریخی کن",
            "category": "place",
            "type": "historical",
            "region": "تهران، استان تهران",
            "neighbourhood": "محله بهاران",
            "location": {
                "x": 51.26612194085074,
                "y": 35.77440124229566,
                "z": "NaN"
            }
        },
        {
            "title": "مجموعه فرهنگی تاریخی کاخ نیاوران",
            "address": "باهنر، پاسداران",
            "category": "place",
            "type": "interests",
            "region": "تهران، استان تهران",
            "neighbourhood": "محله صاحبقرانیه",
            "location": {
                "x": 51.47084392575112,
                "y": 35.81087904334521,
                "z": "NaN"
            }
        },
        {
            "title": "موزه ملی ایران باستان",
            "address": "امام خمینی، سی تیر",
            "category": "place",
            "type": "museum",
            "region": "تهران، استان تهران",
            "neighbourhood": "محله فردوسی",
            "location": {
                "x": 51.414643000000005,
                "y": 35.68698809999999,
                "z": "NaN"
            }
        },
        {
            "title": "باغ و عمارت فخر الدوله",
            "address": "ابن سینا، مشکی",
            "category": "place",
            "type": "historical",
            "region": "تهران، استان تهران",
            "neighbourhood": "محله دروازه شمیران",
            "location": {
                "x": 51.43814507871866,
                "y": 35.69730514501386,
                "z": "NaN"
            }
        },
        {
            "title": "خانه مداحان اهل بیت (ع)",
            "address": "ابن سینا، مشکی",
            "category": "place",
            "type": "historical",
            "region": "تهران، استان تهران",
            "neighbourhood": "محله دروازه شمیران",
            "location": {
                "x": 51.43801442987903,
                "y": 35.697171956035966,
                "z": "NaN"
            }
        },
        {
            "title": "دفتر قدیمی مجله صبح امروز و ماهنامه دانشمند",
            "address": "بهارستان",
            "category": "place",
            "type": "historical",
            "region": "تهران، استان تهران",
            "neighbourhood": "محله بهارستان",
            "location": {
                "x": 51.43472024346646,
                "y": 35.6954177302114,
                "z": "NaN"
            }
        },
        {
            "title": "خانه فراغت (عمارت دبیرالملک)",
            "address": "مصطفی خمینی، نصراللهی، فخرالملک",
            "category": "place",
            "type": "historical",
            "region": "تهران، استان تهران",
            "neighbourhood": "محله امام زاده یحیی",
            "location": {
                "x": 51.4353752856101,
                "y": 35.68234196429233,
                "z": "NaN"
            }
        },
        {
            "title": "خانه قوام الدوله",
            "address": "امیرکبیر، جاویدی",
            "category": "place",
            "type": "historical",
            "region": "تهران، استان تهران",
            "neighbourhood": "محله امام زاده یحیی",
            "location": {
                "x": 51.43433488804235,
                "y": 35.68341540729623,
                "z": "NaN"
            }
        },
        {
            "title": "عمارت سرهنگ ایرج (خانه تاریخی پامنار)",
            "address": "مصطفی خمینی، خلیلی مفرد، پامنار، شهید صوفیانی",
            "category": "place",
            "type": "historical",
            "region": "تهران، استان تهران",
            "neighbourhood": "محله ارگ - پامنار",
            "location": {
                "x": 51.425946499999995,
                "y": 35.6827657,
                "z": "NaN"
            }
        },
        {
            "title": "عمارت تاریخی امام جمعه",
            "address": "سعدی جنوبی، ناظم الاطبا، بهبهانی",
            "category": "place",
            "type": "historical",
            "region": "تهران، استان تهران",
            "neighbourhood": "محله ارگ - پامنار",
            "location": {
                "x": 51.42374306917191,
                "y": 35.682285050645,
                "z": "NaN"
            }
        },
        {
            "title": "کودکستان تاریخی برسابه",
            "address": "جمهوری اسلامی، شیرازی، برسابه",
            "category": "place",
            "type": "historical",
            "region": "تهران، استان تهران",
            "neighbourhood": "محله بهارستان",
            "location": {
                "x": 51.42911965029056,
                "y": 35.690335917469135,
                "z": "NaN"
            }
        },
        {
            "title": "مدرسه تاریخی دارالفنون",
            "address": "امام خمینی، باب همایون، قنات",
            "category": "place",
            "type": "historical",
            "region": "تهران، استان تهران",
            "neighbourhood": "محله ارگ - پامنار",
            "location": {
                "x": 51.42186752202415,
                "y": 35.68379663270575,
                "z": "NaN"
            }
        },
        {
            "title": "عمارت امین السلطان (خانه تاریخی اتحادیه)",
            "address": "جمهوری اسلامی، لاله زار، اتحادیه",
            "category": "place",
            "type": "historical",
            "region": "تهران، استان تهران",
            "neighbourhood": "محله فردوسی",
            "location": {
                "x": 51.42184491366191,
                "y": 35.690829321698935,
                "z": "NaN"
            }
        },
        {
            "title": "بازارچه تاریخی عودلاجان",
            "address": "مصطفی خمینی، 15 خرداد، بازارچه عودلاجان",
            "category": "place",
            "type": "historical",
            "region": "تهران، استان تهران",
            "neighbourhood": "محله ارگ - پامنار",
            "location": {
                "x": 51.42720347094931,
                "y": 35.67658969398698,
                "z": "NaN"
            }
        },
        {
            "title": "خانه تاریخی ملک",
            "address": "ناصرخسرو، 15 خرداد، بین الحرمین",
            "category": "place",
            "type": "historical",
            "region": "تهران، استان تهران",
            "neighbourhood": "محله بازار تهران",
            "location": {
                "x": 51.42367073506587,
                "y": 35.67593678805243,
                "z": "NaN"
            }
        },
        {
            "title": "عمارت تاریخی کوچه هفت تن",
            "address": "هفت تن",
            "category": "place",
            "type": "historical",
            "region": "تهران، استان تهران",
            "neighbourhood": "محله بازار تهران",
            "location": {
                "x": 51.42322935015089,
                "y": 35.672299615939515,
                "z": "NaN"
            }
        },
        {
            "title": "خانه تاریخی مستوفی الممالک",
            "address": "15 خرداد، بادامچی، کوی مستوفی",
            "category": "place",
            "type": "historical",
            "region": "تهران، استان تهران",
            "neighbourhood": "محله سنگلج",
            "location": {
                "x": 51.41472230577166,
                "y": 35.67658473950626,
                "z": "NaN"
            }
        },
        {
            "title": "خانه باستان شناسان ایران",
            "address": "خیام، کارکن اساسی",
            "category": "place",
            "type": "historical",
            "region": "تهران، استان تهران",
            "neighbourhood": "محله سنگلج",
            "location": {
                "x": 51.41556420234002,
                "y": 35.674233843919595,
                "z": "NaN"
            }
        },
        {
            "title": "عمارت و باغ تاریخی اعلم السلطنه",
            "address": "حافظ، ایرانیان",
            "category": "place",
            "type": "historical",
            "region": "تهران، استان تهران",
            "neighbourhood": "محله شیخ هادی",
            "location": {
                "x": 51.410527190364924,
                "y": 35.69224039048775,
                "z": "NaN"
            }
        },
        {
            "title": "باغ عمارت تاریخی معیرالممالک کیهانی",
            "address": "خیام، مهدویان احدی، کیهانی",
            "category": "place",
            "type": "historical",
            "region": "تهران، استان تهران",
            "neighbourhood": "محله سنگلج",
            "location": {
                "x": 51.4124849679057,
                "y": 35.6702245124635,
                "z": "NaN"
            }
        },
        {
            "title": "سرای باستانی",
            "address": "صاحب جمع، انبار گندم",
            "category": "place",
            "type": "historical",
            "region": "تهران، استان تهران",
            "neighbourhood": "محله شهید هرندی",
            "location": {
                "x": 51.430073510798266,
                "y": 35.66424219764665,
                "z": "NaN"
            }
        },
        {
            "title": "بازارچه تاریخی نایب آقا",
            "address": "ولیعصر، صداقت، محمودیان",
            "category": "place",
            "type": "historical",
            "region": "تهران، استان تهران",
            "neighbourhood": "محله فروزش - امیر بهادر",
            "location": {
                "x": 51.40176802867272,
                "y": 35.67089576827054,
                "z": "NaN"
            }
        },
        {
            "title": "عمارت تاریخی کلاه فرنگی عشرت آباد",
            "address": "سپاه، بزرگراه شهید صیاد شیرازی",
            "category": "place",
            "type": "historical",
            "region": "تهران، استان تهران",
            "neighbourhood": "محله کاج",
            "location": {
                "x": 51.44158950000002,
                "y": 35.709454500000014,
                "z": "NaN"
            }
        },
        {
            "title": "آرامستان تاریخی مسیحیان دولاب",
            "category": "place",
            "type": "historical",
            "region": "تهران، استان تهران",
            "neighbourhood": "محله شکیبا",
            "location": {
                "x": 51.47025848372447,
                "y": 35.67586817813384,
                "z": "NaN"
            }
        },
        {
            "title": "برجک تاریخی زندان قصر",
            "address": "بزرگراه شهید صیاد شیرازی، پلیس، شهید محمد اسماعیل، مرودشت",
            "category": "place",
            "type": "historical",
            "region": "تهران، استان تهران",
            "neighbourhood": "محله قصر",
            "location": {
                "x": 51.44953078532126,
                "y": 35.72549665487542,
                "z": "NaN"
            }
        },
        {
            "title": "قلعه باستانی عظیم آباد",
            "address": "شهید علی پریشانی",
            "category": "place",
            "type": "historical",
            "region": "شهرستان ری، استان تهران",
            "neighbourhood": "محله سیزده آبان",
            "location": {
                "x": 51.40616870160739,
                "y": 35.611288244338326,
                "z": "NaN"
            }
        },
        {
            "title": "اتش کده تاریخی به سمت کوه راگا",
            "category": "place",
            "type": "historical",
            "region": "شهرستان تهران، استان تهران",
            "location": {
                "x": 51.477519514133135,
                "y": 35.60425596634599,
                "z": "NaN"
            }
        },
        {
            "title": "خانه تاریخی علامه کرباسچیان",
            "address": "ده ونک، صابری، سوم",
            "category": "place",
            "type": "historical",
            "region": "تهران، استان تهران",
            "neighbourhood": "محله ونک",
            "location": {
                "x": 51.39227553071888,
                "y": 35.77049697976996,
                "z": "NaN"
            }
        },
        {
            "title": "عمارت تاریخی خسروشاهی",
            "address": "باهنر، منایی، حسن پور، امیر",
            "category": "place",
            "type": "historical",
            "region": "تهران، استان تهران",
            "neighbourhood": "محله جماران",
            "location": {
                "x": 51.4592222751249,
                "y": 35.817500212235615,
                "z": "NaN"
            }
        },
        {
            "title": "حمام تاریخی کن",
            "address": "بزرگراه شهید همت، الغدیر 1، زینعلى، باغیانی",
            "category": "place",
            "type": "historical",
            "region": "تهران، استان تهران",
            "neighbourhood": "محله کن",
            "location": {
                "x": 51.27876819318777,
                "y": 35.757623011037154,
                "z": "NaN"
            }
        },
        {
            "title": "پل تاریخی کن",
            "category": "place",
            "type": "historical",
            "region": "تهران، استان تهران",
            "neighbourhood": "محله بهاران",
            "location": {
                "x": 51.26612194085074,
                "y": 35.77440124229566,
                "z": "NaN"
            }
        },
        {
            "title": "موزه ملی ایران باستان",
            "address": "امام خمینی، سی تیر",
            "category": "place",
            "type": "museum",
            "region": "تهران، استان تهران",
            "neighbourhood": "محله فردوسی",
            "location": {
                "x": 51.414643000000005,
                "y": 35.68698809999999,
                "z": "NaN"
            }
        },
        {
            "title": "مجموعه فرهنگی تاریخی کاخ نیاوران",
            "address": "باهنر، پاسداران",
            "category": "place",
            "type": "interests",
            "region": "تهران، استان تهران",
            "neighbourhood": "محله صاحبقرانیه",
            "location": {
                "x": 51.47084392575112,
                "y": 35.81087904334521,
                "z": "NaN"
            }
        },
        {
            "title": "خانه همسایه",
            "address": "مصطفی خمینی، خلیلی مفرد، آقا موسی، اول",
            "category": "place",
            "type": "historical",
            "region": "تهران، استان تهران",
            "neighbourhood": "محله ارگ - پامنار",
            "location": {
                "x": 51.42961459905796,
                "y": 35.68285100886423,
                "z": "NaN"
            }
        },
        {
            "title": "خانه اردیبهشت\u200c عودلاجان",
            "address": "مصطفی خمینی، خلیلی مفرد، آقا موسی، اول",
            "category": "place",
            "type": "historical",
            "region": "تهران، استان تهران",
            "neighbourhood": "محله ارگ - پامنار",
            "location": {
                "x": 51.429692540631585,
                "y": 35.68276885328806,
                "z": "NaN"
            }
        },
        {
            "title": "خانه موتمن الاطبا",
            "address": "امیرکبیر، پامنار، موتمن الاطبا",
            "category": "place",
            "type": "historical",
            "region": "تهران، استان تهران",
            "neighbourhood": "محله ارگ - پامنار",
            "location": {
                "x": 51.42888153899007,
                "y": 35.68244446406321,
                "z": "NaN"
            }
        },
        {
            "title": "خانه لشگر نویس",
            "address": "ناظم الاطبا جنوبی، حشمتی، رکنی، شهید صوفیانی، نوری",
            "category": "place",
            "type": "historical",
            "region": "تهران، استان تهران",
            "neighbourhood": "محله ارگ - پامنار",
            "location": {
                "x": 51.426184995762185,
                "y": 35.68287352385129,
                "z": "NaN"
            }
        },
        {
            "title": "خانه موزه بازار (عمارت سلطان بیگم)",
            "address": "ناظم الاطبا جنوبی، حشمتی، اصلانی، کمالی",
            "category": "place",
            "type": "historical",
            "region": "تهران، استان تهران",
            "neighbourhood": "محله ارگ - پامنار",
            "location": {
                "x": 51.42579563959216,
                "y": 35.683596653636634,
                "z": "NaN"
            }
        },
        {
            "title": "عمارت و باغ تاریخی اعلم السلطنه",
            "address": "حافظ، ایرانیان",
            "category": "place",
            "type": "historical",
            "region": "تهران، استان تهران",
            "neighbourhood": "محله شیخ هادی",
            "location": {
                "x": 51.410527190364924,
                "y": 35.69224039048775,
                "z": "NaN"
            }
        },
        {
            "title": "عمارت امین السلطان (خانه تاریخی اتحادیه)",
            "address": "جمهوری اسلامی، لاله زار، اتحادیه",
            "category": "place",
            "type": "historical",
            "region": "تهران، استان تهران",
            "neighbourhood": "محله فردوسی",
            "location": {
                "x": 51.42184491366191,
                "y": 35.690829321698935,
                "z": "NaN"
            }
        },
        {
            "title": "عمارت تاریخی کلاه فرنگی عشرت آباد",
            "address": "سپاه، بزرگراه شهید صیاد شیرازی",
            "category": "place",
            "type": "historical",
            "region": "تهران، استان تهران",
            "neighbourhood": "محله کاج",
            "location": {
                "x": 51.44158950000002,
                "y": 35.709454500000014,
                "z": "NaN"
            }
        },
        {
            "title": "کودکستان تاریخی برسابه",
            "address": "جمهوری اسلامی، شیرازی، برسابه",
            "category": "place",
            "type": "historical",
            "region": "تهران، استان تهران",
            "neighbourhood": "محله بهارستان",
            "location": {
                "x": 51.42911965029056,
                "y": 35.690335917469135,
                "z": "NaN"
            }
        },
        {
            "title": "برجک تاریخی زندان قصر",
            "address": "بزرگراه شهید صیاد شیرازی، پلیس، شهید محمد اسماعیل، مرودشت",
            "category": "place",
            "type": "historical",
            "region": "تهران، استان تهران",
            "neighbourhood": "محله قصر",
            "location": {
                "x": 51.44953078532126,
                "y": 35.72549665487542,
                "z": "NaN"
            }
        },
        {
            "title": "مدرسه تاریخی دارالفنون",
            "address": "امام خمینی، باب همایون، قنات",
            "category": "place",
            "type": "historical",
            "region": "تهران، استان تهران",
            "neighbourhood": "محله ارگ - پامنار",
            "location": {
                "x": 51.42186752202415,
                "y": 35.68379663270575,
                "z": "NaN"
            }
        },
        {
            "title": "عمارت تاریخی امام جمعه",
            "address": "سعدی جنوبی، ناظم الاطبا، بهبهانی",
            "category": "place",
            "type": "historical",
            "region": "تهران، استان تهران",
            "neighbourhood": "محله ارگ - پامنار",
            "location": {
                "x": 51.42374306917191,
                "y": 35.682285050645,
                "z": "NaN"
            }
        },
        {
            "title": "عمارت سرهنگ ایرج (خانه تاریخی پامنار)",
            "address": "مصطفی خمینی، خلیلی مفرد، پامنار، شهید صوفیانی",
            "category": "place",
            "type": "historical",
            "region": "تهران، استان تهران",
            "neighbourhood": "محله ارگ - پامنار",
            "location": {
                "x": 51.425946499999995,
                "y": 35.6827657,
                "z": "NaN"
            }
        },
        {
            "title": "خانه تاریخی مستوفی الممالک",
            "address": "15 خرداد، بادامچی، کوی مستوفی",
            "category": "place",
            "type": "historical",
            "region": "تهران، استان تهران",
            "neighbourhood": "محله سنگلج",
            "location": {
                "x": 51.41472230577166,
                "y": 35.67658473950626,
                "z": "NaN"
            }
        },
        {
            "title": "خانه باستان شناسان ایران",
            "address": "خیام، کارکن اساسی",
            "category": "place",
            "type": "historical",
            "region": "تهران، استان تهران",
            "neighbourhood": "محله سنگلج",
            "location": {
                "x": 51.41556420234002,
                "y": 35.674233843919595,
                "z": "NaN"
            }
        },
        {
            "title": "خانه تاریخی ملک",
            "address": "ناصرخسرو، 15 خرداد، بین الحرمین",
            "category": "place",
            "type": "historical",
            "region": "تهران، استان تهران",
            "neighbourhood": "محله بازار تهران",
            "location": {
                "x": 51.42367073506587,
                "y": 35.67593678805243,
                "z": "NaN"
            }
        },
        {
            "title": "بازارچه تاریخی عودلاجان",
            "address": "مصطفی خمینی، 15 خرداد، بازارچه عودلاجان",
            "category": "place",
            "type": "historical",
            "region": "تهران، استان تهران",
            "neighbourhood": "محله ارگ - پامنار",
            "location": {
                "x": 51.42720347094931,
                "y": 35.67658969398698,
                "z": "NaN"
            }
        },
        {
            "title": "بازارچه تاریخی نایب آقا",
            "address": "ولیعصر، صداقت، محمودیان",
            "category": "place",
            "type": "historical",
            "region": "تهران، استان تهران",
            "neighbourhood": "محله فروزش - امیر بهادر",
            "location": {
                "x": 51.40176802867272,
                "y": 35.67089576827054,
                "z": "NaN"
            }
        },
        {
            "title": "عمارت تاریخی کوچه هفت تن",
            "address": "هفت تن",
            "category": "place",
            "type": "historical",
            "region": "تهران، استان تهران",
            "neighbourhood": "محله بازار تهران",
            "location": {
                "x": 51.42322935015089,
                "y": 35.672299615939515,
                "z": "NaN"
            }
        },
        {
            "title": "باغ عمارت تاریخی معیرالممالک کیهانی",
            "address": "خیام، مهدویان احدی، کیهانی",
            "category": "place",
            "type": "historical",
            "region": "تهران، استان تهران",
            "neighbourhood": "محله سنگلج",
            "location": {
                "x": 51.4124849679057,
                "y": 35.6702245124635,
                "z": "NaN"
            }
        },
        {
            "title": "خانه تاریخی علامه کرباسچیان",
            "address": "ده ونک، صابری، سوم",
            "category": "place",
            "type": "historical",
            "region": "تهران، استان تهران",
            "neighbourhood": "محله ونک",
            "location": {
                "x": 51.39227553071888,
                "y": 35.77049697976996,
                "z": "NaN"
            }
        },
        {
            "title": "سرای باستانی",
            "address": "صاحب جمع، انبار گندم",
            "category": "place",
            "type": "historical",
            "region": "تهران، استان تهران",
            "neighbourhood": "محله شهید هرندی",
            "location": {
                "x": 51.430073510798266,
                "y": 35.66424219764665,
                "z": "NaN"
            }
        },
        {
            "title": "آرامستان تاریخی مسیحیان دولاب",
            "category": "place",
            "type": "historical",
            "region": "تهران، استان تهران",
            "neighbourhood": "محله شکیبا",
            "location": {
                "x": 51.47025848372447,
                "y": 35.67586817813384,
                "z": "NaN"
            }
        },
        {
            "title": "قلعه باستانی عظیم آباد",
            "address": "شهید علی پریشانی",
            "category": "place",
            "type": "historical",
            "region": "شهرستان ری، استان تهران",
            "neighbourhood": "محله سیزده آبان",
            "location": {
                "x": 51.40616870160739,
                "y": 35.611288244338326,
                "z": "NaN"
            }
        },
        {
            "title": "عمارت تاریخی خسروشاهی",
            "address": "باهنر، منایی، حسن پور، امیر",
            "category": "place",
            "type": "historical",
            "region": "تهران، استان تهران",
            "neighbourhood": "محله جماران",
            "location": {
                "x": 51.4592222751249,
                "y": 35.817500212235615,
                "z": "NaN"
            }
        },
        {
            "title": "حمام تاریخی کن",
            "address": "بزرگراه شهید همت، الغدیر 1، زینعلى، باغیانی",
            "category": "place",
            "type": "historical",
            "region": "تهران، استان تهران",
            "neighbourhood": "محله کن",
            "location": {
                "x": 51.27876819318777,
                "y": 35.757623011037154,
                "z": "NaN"
            }
        },
        {
            "title": "پل تاریخی کن",
            "category": "place",
            "type": "historical",
            "region": "تهران، استان تهران",
            "neighbourhood": "محله بهاران",
            "location": {
                "x": 51.26612194085074,
                "y": 35.77440124229566,
                "z": "NaN"
            }
        },
        {
            "title": "اتش کده تاریخی به سمت کوه راگا",
            "category": "place",
            "type": "historical",
            "region": "شهرستان تهران، استان تهران",
            "location": {
                "x": 51.477519514133135,
                "y": 35.60425596634599,
                "z": "NaN"
            }
        },
        {
            "title": "مجموعه فرهنگی تاریخی کاخ نیاوران",
            "address": "باهنر، پاسداران",
            "category": "place",
            "type": "interests",
            "region": "تهران، استان تهران",
            "neighbourhood": "محله صاحبقرانیه",
            "location": {
                "x": 51.47084392575112,
                "y": 35.81087904334521,
                "z": "NaN"
            }
        },
        {
            "title": "موزه ملی ایران باستان",
            "address": "امام خمینی، سی تیر",
            "category": "place",
            "type": "museum",
            "region": "تهران، استان تهران",
            "neighbourhood": "محله فردوسی",
            "location": {
                "x": 51.414643000000005,
                "y": 35.68698809999999,
                "z": "NaN"
            }
        },
        {
            "title": "عمارت سرهنگ بهرامی",
            "address": "ولیعصر، نوفل لوشاتو",
            "category": "place",
            "type": "historical",
            "region": "تهران، استان تهران",
            "neighbourhood": "محله شیخ هادی",
            "location": {
                "x": 51.40758121506138,
                "y": 35.69742308779573,
                "z": "NaN"
            }
        },
        {
            "title": "عمارت کوشک",
            "address": "انقلاب اسلامی، سلیمانی، مهنا",
            "category": "place",
            "type": "historical",
            "region": "تهران، استان تهران",
            "neighbourhood": "محله فردوسی",
            "location": {
                "x": 51.422689,
                "y": 35.70018099999999,
                "z": "NaN"
            }
        },
        {
            "title": "خانه خسرو افشار - ستاد سمن های شهر تهران",
            "address": "انقلاب اسلامی، خاقانی",
            "category": "place",
            "type": "historical",
            "region": "تهران، استان تهران",
            "neighbourhood": "محله امجدیه - خاقانی",
            "location": {
                "x": 51.4280039514359,
                "y": 35.70451885236104,
                "z": "NaN"
            }
        },
        {
            "title": "عمارت شقاقی - کوشک مصری",
            "address": "انقلاب اسلامی، سلیمانی، مهنا",
            "category": "place",
            "type": "historical",
            "region": "تهران، استان تهران",
            "neighbourhood": "محله فردوسی",
            "location": {
                "x": 51.42249749999997,
                "y": 35.699694699999995,
                "z": "NaN"
            }
        },
        {
            "title": "آتشکده زرتشتیان آدریان",
            "address": "جمهوری اسلامی، میرزا کوچک خان",
            "category": "place",
            "type": "historical",
            "region": "تهران، استان تهران",
            "neighbourhood": "محله فردوسی",
            "location": {
                "x": 51.4139902,
                "y": 35.695709099999995,
                "z": "NaN"
            }
        },
        {
            "title": "حمام تاریخی کن",
            "address": "بزرگراه شهید همت، الغدیر 1، زینعلى، باغیانی",
            "category": "place",
            "type": "historical",
            "region": "تهران، استان تهران",
            "neighbourhood": "محله کن",
            "location": {
                "x": 51.27876819318777,
                "y": 35.757623011037154,
                "z": "NaN"
            }
        },
        {
            "title": "پل تاریخی کن",
            "category": "place",
            "type": "historical",
            "region": "تهران، استان تهران",
            "neighbourhood": "محله بهاران",
            "location": {
                "x": 51.26612194085074,
                "y": 35.77440124229566,
                "z": "NaN"
            }
        },
        {
            "title": "عمارت و باغ تاریخی اعلم السلطنه",
            "address": "حافظ، ایرانیان",
            "category": "place",
            "type": "historical",
            "region": "تهران، استان تهران",
            "neighbourhood": "محله شیخ هادی",
            "location": {
                "x": 51.410527190364924,
                "y": 35.69224039048775,
                "z": "NaN"
            }
        },
        {
            "title": "خانه تاریخی علامه کرباسچیان",
            "address": "ده ونک، صابری، سوم",
            "category": "place",
            "type": "historical",
            "region": "تهران، استان تهران",
            "neighbourhood": "محله ونک",
            "location": {
                "x": 51.39227553071888,
                "y": 35.77049697976996,
                "z": "NaN"
            }
        },
        {
            "title": "بازارچه تاریخی نایب آقا",
            "address": "ولیعصر، صداقت، محمودیان",
            "category": "place",
            "type": "historical",
            "region": "تهران، استان تهران",
            "neighbourhood": "محله فروزش - امیر بهادر",
            "location": {
                "x": 51.40176802867272,
                "y": 35.67089576827054,
                "z": "NaN"
            }
        },
        {
            "title": "خانه تاریخی مستوفی الممالک",
            "address": "15 خرداد، بادامچی، کوی مستوفی",
            "category": "place",
            "type": "historical",
            "region": "تهران، استان تهران",
            "neighbourhood": "محله سنگلج",
            "location": {
                "x": 51.41472230577166,
                "y": 35.67658473950626,
                "z": "NaN"
            }
        },
        {
            "title": "باغ عمارت تاریخی معیرالممالک کیهانی",
            "address": "خیام، مهدویان احدی، کیهانی",
            "category": "place",
            "type": "historical",
            "region": "تهران، استان تهران",
            "neighbourhood": "محله سنگلج",
            "location": {
                "x": 51.4124849679057,
                "y": 35.6702245124635,
                "z": "NaN"
            }
        },
        {
            "title": "عمارت امین السلطان (خانه تاریخی اتحادیه)",
            "address": "جمهوری اسلامی، لاله زار، اتحادیه",
            "category": "place",
            "type": "historical",
            "region": "تهران، استان تهران",
            "neighbourhood": "محله فردوسی",
            "location": {
                "x": 51.42184491366191,
                "y": 35.690829321698935,
                "z": "NaN"
            }
        },
        {
            "title": "خانه باستان شناسان ایران",
            "address": "خیام، کارکن اساسی",
            "category": "place",
            "type": "historical",
            "region": "تهران، استان تهران",
            "neighbourhood": "محله سنگلج",
            "location": {
                "x": 51.41556420234002,
                "y": 35.674233843919595,
                "z": "NaN"
            }
        },
        {
            "title": "مدرسه تاریخی دارالفنون",
            "address": "امام خمینی، باب همایون، قنات",
            "category": "place",
            "type": "historical",
            "region": "تهران، استان تهران",
            "neighbourhood": "محله ارگ - پامنار",
            "location": {
                "x": 51.42186752202415,
                "y": 35.68379663270575,
                "z": "NaN"
            }
        },
        {
            "title": "عمارت تاریخی امام جمعه",
            "address": "سعدی جنوبی، ناظم الاطبا، بهبهانی",
            "category": "place",
            "type": "historical",
            "region": "تهران، استان تهران",
            "neighbourhood": "محله ارگ - پامنار",
            "location": {
                "x": 51.42374306917191,
                "y": 35.682285050645,
                "z": "NaN"
            }
        },
        {
            "title": "عمارت سرهنگ ایرج (خانه تاریخی پامنار)",
            "address": "مصطفی خمینی، خلیلی مفرد، پامنار، شهید صوفیانی",
            "category": "place",
            "type": "historical",
            "region": "تهران، استان تهران",
            "neighbourhood": "محله ارگ - پامنار",
            "location": {
                "x": 51.425946499999995,
                "y": 35.6827657,
                "z": "NaN"
            }
        },
        {
            "title": "کودکستان تاریخی برسابه",
            "address": "جمهوری اسلامی، شیرازی، برسابه",
            "category": "place",
            "type": "historical",
            "region": "تهران، استان تهران",
            "neighbourhood": "محله بهارستان",
            "location": {
                "x": 51.42911965029056,
                "y": 35.690335917469135,
                "z": "NaN"
            }
        },
        {
            "title": "خانه تاریخی ملک",
            "address": "ناصرخسرو، 15 خرداد، بین الحرمین",
            "category": "place",
            "type": "historical",
            "region": "تهران، استان تهران",
            "neighbourhood": "محله بازار تهران",
            "location": {
                "x": 51.42367073506587,
                "y": 35.67593678805243,
                "z": "NaN"
            }
        },
        {
            "title": "عمارت تاریخی کوچه هفت تن",
            "address": "هفت تن",
            "category": "place",
            "type": "historical",
            "region": "تهران، استان تهران",
            "neighbourhood": "محله بازار تهران",
            "location": {
                "x": 51.42322935015089,
                "y": 35.672299615939515,
                "z": "NaN"
            }
        },
        {
            "title": "بازارچه تاریخی عودلاجان",
            "address": "مصطفی خمینی، 15 خرداد، بازارچه عودلاجان",
            "category": "place",
            "type": "historical",
            "region": "تهران، استان تهران",
            "neighbourhood": "محله ارگ - پامنار",
            "location": {
                "x": 51.42720347094931,
                "y": 35.67658969398698,
                "z": "NaN"
            }
        },
        {
            "title": "عمارت تاریخی کلاه فرنگی عشرت آباد",
            "address": "سپاه، بزرگراه شهید صیاد شیرازی",
            "category": "place",
            "type": "historical",
            "region": "تهران، استان تهران",
            "neighbourhood": "محله کاج",
            "location": {
                "x": 51.44158950000002,
                "y": 35.709454500000014,
                "z": "NaN"
            }
        },
        {
            "title": "سرای باستانی",
            "address": "صاحب جمع، انبار گندم",
            "category": "place",
            "type": "historical",
            "region": "تهران، استان تهران",
            "neighbourhood": "محله شهید هرندی",
            "location": {
                "x": 51.430073510798266,
                "y": 35.66424219764665,
                "z": "NaN"
            }
        },
        {
            "title": "برجک تاریخی زندان قصر",
            "address": "بزرگراه شهید صیاد شیرازی، پلیس، شهید محمد اسماعیل، مرودشت",
            "category": "place",
            "type": "historical",
            "region": "تهران، استان تهران",
            "neighbourhood": "محله قصر",
            "location": {
                "x": 51.44953078532126,
                "y": 35.72549665487542,
                "z": "NaN"
            }
        },
        {
            "title": "قلعه باستانی عظیم آباد",
            "address": "شهید علی پریشانی",
            "category": "place",
            "type": "historical",
            "region": "شهرستان ری، استان تهران",
            "neighbourhood": "محله سیزده آبان",
            "location": {
                "x": 51.40616870160739,
                "y": 35.611288244338326,
                "z": "NaN"
            }
        },
        {
            "title": "آرامستان تاریخی مسیحیان دولاب",
            "category": "place",
            "type": "historical",
            "region": "تهران، استان تهران",
            "neighbourhood": "محله شکیبا",
            "location": {
                "x": 51.47025848372447,
                "y": 35.67586817813384,
                "z": "NaN"
            }
        },
        {
            "title": "عمارت تاریخی خسروشاهی",
            "address": "باهنر، منایی، حسن پور، امیر",
            "category": "place",
            "type": "historical",
            "region": "تهران، استان تهران",
            "neighbourhood": "محله جماران",
            "location": {
                "x": 51.4592222751249,
                "y": 35.817500212235615,
                "z": "NaN"
            }
        },
        {
            "title": "اتش کده تاریخی به سمت کوه راگا",
            "category": "place",
            "type": "historical",
            "region": "شهرستان تهران، استان تهران",
            "location": {
                "x": 51.477519514133135,
                "y": 35.60425596634599,
                "z": "NaN"
            }
        },
        {
            "title": "موزه خودروهای تاریخی ایران",
            "address": "بزرگراه لشگری، بیست و پنجم",
            "category": "place",
            "type": "museum",
            "region": "تهران، استان تهران",
            "neighbourhood": "شهرک استقلال",
            "location": {
                "x": 51.2219176,
                "y": 35.7142222,
                "z": "NaN"
            }
        },
        {
            "title": "کاخ خرم (کاخ سنگی)",
            "address": "بزرگراه شهید چمران، ملکوتی",
            "category": "place",
            "type": "historical",
            "region": "تهران، استان تهران",
            "neighbourhood": "محله شهرآرا - پاتریس",
            "location": {
                "x": 51.37324046398566,
                "y": 35.71938401725941,
                "z": "NaN"
            }
        },
        {
            "title": "خانه پروفسور یحیی عدل",
            "address": "ولیعصر، سخنور",
            "category": "place",
            "type": "historical",
            "region": "تهران، استان تهران",
            "neighbourhood": "محله شیخ هادی",
            "location": {
                "x": 51.40348702669145,
                "y": 35.68853211814326,
                "z": "NaN"
            }
        },
        {
            "title": "عمارت سرهنگ بهرامی",
            "address": "ولیعصر، نوفل لوشاتو",
            "category": "place",
            "type": "historical",
            "region": "تهران، استان تهران",
            "neighbourhood": "محله شیخ هادی",
            "location": {
                "x": 51.40758121506138,
                "y": 35.69742308779573,
                "z": "NaN"
            }
        },
        {
            "title": "برجک قلعه شمس آباد",
            "address": "بزرگراه آزادگان، فیروز بهرام",
            "category": "place",
            "type": "historical",
            "region": "بخش چهاردانگه، شهرستان اسلامشهر، استان تهران",
            "location": {
                "x": 51.249804639212584,
                "y": 35.63681521199127,
                "z": "NaN"
            }
        },
        {
            "title": "آسیاب آبی یوسف آباد",
            "address": "بزرگراه کردستان، پنجاه و یکم، شصتم، اسدآبادی",
            "category": "place",
            "type": "historical",
            "region": "تهران، استان تهران",
            "neighbourhood": "محله یوسف آباد",
            "location": {
                "x": 51.40536695761184,
                "y": 35.74388397942879,
                "z": "NaN"
            }
        },
        {
            "title": "حمام انصاری",
            "address": "ولیعصر، فرهنگ، قدسی",
            "category": "place",
            "type": "historical",
            "region": "تهران، استان تهران",
            "neighbourhood": "محله امیریه",
            "location": {
                "x": 51.40225617807217,
                "y": 35.67810857017843,
                "z": "NaN"
            }
        },
        {
            "title": "برج تاریخی طغرل",
            "address": "نبی پور، مسجد",
            "category": "place",
            "type": "historical",
            "region": "ری، استان تهران",
            "neighbourhood": "محله ظهیر آباد",
            "location": {
                "x": 51.4455749,
                "y": 35.600660399999995,
                "z": "NaN"
            }
        },
        {
            "title": "قلعه باستانی عظیم آباد",
            "address": "شهید علی پریشانی",
            "category": "place",
            "type": "historical",
            "region": "شهرستان ری، استان تهران",
            "neighbourhood": "محله سیزده آبان",
            "location": {
                "x": 51.40616870160739,
                "y": 35.611288244338326,
                "z": "NaN"
            }
        },
        {
            "title": "قلعه تاریخی کاسنی",
            "address": "سیدشهدا",
            "category": "place",
            "type": "historical",
            "region": "ری، استان تهران",
            "location": {
                "x": 51.45417868899512,
                "y": 35.577609692874205,
                "z": "NaN"
            }
        },
        {
            "title": "باغ ظهیرالدوله",
            "address": "فدائیان اسلام، شهید مصطفی امیری",
            "category": "place",
            "type": "historical",
            "region": "ری، استان تهران",
            "neighbourhood": "محله منصوریه منگل",
            "location": {
                "x": 51.44221325634304,
                "y": 35.60873815422799,
                "z": "NaN"
            }
        },
        {
            "title": "باروی ری",
            "address": "بزرگراه شهید کریمی، تقوی نیا",
            "category": "place",
            "type": "historical",
            "region": "ری، استان تهران",
            "neighbourhood": "محله صفاییه",
            "location": {
                "x": 51.44516573892726,
                "y": 35.6075281924931,
                "z": "NaN"
            }
        },
        {
            "title": "سنگ نگاره فتحعلی شاه شهرری",
            "address": "بلوار بسیج، ابن بابویه، عباس زاده",
            "category": "place",
            "type": "historical",
            "region": "ری، استان تهران",
            "neighbourhood": "محله صفاییه",
            "location": {
                "x": 51.445257087331576,
                "y": 35.60746903671757,
                "z": "NaN"
            }
        },
        {
            "title": "ارگ سلجوقی ری",
            "address": "ابن بابویه، عبدالملکی",
            "category": "place",
            "type": "historical",
            "region": "ری، استان تهران",
            "neighbourhood": "محله باروت کوبی",
            "location": {
                "x": 51.44963858074144,
                "y": 35.60505523526112,
                "z": "NaN"
            }
        },
        {
            "title": "دژ رشکان",
            "category": "place",
            "type": "historical",
            "region": "ری، استان تهران",
            "neighbourhood": "محله باروت کوبی",
            "location": {
                "x": 51.449888900000005,
                "y": 35.60524999999999,
                "z": "NaN"
            }
        },
        {
            "title": "قلعه ظهیرآباد",
            "address": "نبی پور، فرامرزی",
            "category": "place",
            "type": "historical",
            "region": "ری، استان تهران",
            "neighbourhood": "محله ظهیر آباد",
            "location": {
                "x": 51.44858858850537,
                "y": 35.59910100433087,
                "z": "NaN"
            }
        },
        {
            "title": "کاروانسرای صفوی (عباسی)",
            "address": "قم، پاکدامن، تقوی راد، سبزعلی",
            "category": "place",
            "type": "historical",
            "region": "ری، استان تهران",
            "neighbourhood": "محله سرتخت",
            "location": {
                "x": 51.43716618418694,
                "y": 35.58880773421743,
                "z": "NaN"
            }
        },
        {
            "title": "کاروانسرای دوقلو قاجاری",
            "address": "قم",
            "category": "place",
            "type": "historical",
            "region": "ری، استان تهران",
            "neighbourhood": "محله هاشم آباد",
            "location": {
                "x": 51.43616797539965,
                "y": 35.58745803839004,
                "z": "NaN"
            }
        },
        {
            "title": "ساعت آفتابی",
            "address": "فدایی",
            "category": "place",
            "type": "historical",
            "region": "ری، استان تهران",
            "neighbourhood": "محله هاشم آباد",
            "location": {
                "x": 51.43582145061969,
                "y": 35.58617914833149,
                "z": "NaN"
            }
        },
        {
            "title": "قلعه گبری شهر ری",
            "address": "سلمان فارسی شرقی",
            "category": "place",
            "type": "historical",
            "region": "ری، استان تهران",
            "neighbourhood": "محله علایین",
            "location": {
                "x": 51.450969725847244,
                "y": 35.58297768986518,
                "z": "NaN"
            }
        },
        {
            "title": "محله هفت دستگاه",
            "address": "بلوار رستگار، غلام رحیم دوست",
            "category": "place",
            "type": "historical",
            "region": "شهرستان ری، استان تهران",
            "location": {
                "x": 51.467458978120405,
                "y": 35.588431317222884,
                "z": "NaN"
            }
        },
        {
            "title": "برج نقاره خانه (برج یزید ری)",
            "address": "بلوار رستگار، غلام رحیم دوست",
            "category": "place",
            "type": "historical",
            "region": "شهرستان ری، استان تهران",
            "location": {
                "x": 51.46832540631294,
                "y": 35.589376508566,
                "z": "NaN"
            }
        },
        {
            "title": "برج اینانج",
            "address": "بلوار رستگار، غلام رحیم دوست",
            "category": "place",
            "type": "historical",
            "region": "شهرستان ری، استان تهران",
            "location": {
                "x": 51.469115316867835,
                "y": 35.58867304431552,
                "z": "NaN"
            }
        },
        {
            "title": "قلعه علیمون",
            "address": "سلمان فارسی شرقی، سلمان فارسی، نورالهی",
            "category": "place",
            "type": "historical",
            "region": "شهرستان ری، استان تهران",
            "location": {
                "x": 51.44745866,
                "y": 35.57091375000002,
                "z": "NaN"
            }
        }
    ]
}