{
    "items": [
        {
            "title": "جیگرکی امیر",
            "address": "پیروزی",
            "category": "place",
            "type": "restaurant",
            "region": "تهران، استان تهران",
            "neighbourhood": "محله زاهد گیلانی",
            "location": {
                "x": 51.462308199999995,
                "y": 35.6908127,
                "z": "NaN"
            }
        },
        {
            "title": "سفره خانه سنتی زیر بازارچه",
            "address": "پیروزی",
            "category": "place",
            "type": "restaurant",
            "region": "تهران، استان تهران",
            "neighbourhood": "محله بروجردی",
            "location": {
                "x": 51.463534599999996,
                "y": 35.69066400000001,
                "z": "NaN"
            }
        },
        {
            "title": "کباب بناب آذربایجان",
            "address": "پیروزی",
            "category": "place",
            "type": "restaurant",
            "region": "تهران، استان تهران",
            "neighbourhood": "محله بروجردی",
            "location": {
                "x": 51.46349666367856,
                "y": 35.69055731427164,
                "z": "NaN"
            }
        },
        {
            "title": "رستوران میلاد",
            "address": "پیروزی، باقری - پرواز",
            "category": "place",
            "type": "restaurant",
            "region": "تهران، استان تهران",
            "neighbourhood": "محله زاهد گیلانی",
            "location": {
                "x": 51.4604954,
                "y": 35.6962262,
                "z": "NaN"
            }
        },
        {
            "title": "رستوران و تهیه غذای پارسی",
            "address": "پیروزی، پیچک",
            "category": "place",
            "type": "restaurant",
            "region": "تهران، استان تهران",
            "neighbourhood": "محله زاهد گیلانی",
            "location": {
                "x": 51.4591777,
                "y": 35.6945249,
                "z": "NaN"
            }
        },
        {
            "title": "کافه رستوران سورینو",
            "address": "پیروزی",
            "category": "place",
            "type": "restaurant",
            "region": "تهران، استان تهران",
            "neighbourhood": "محله چهارصد دستگاه",
            "location": {
                "x": 51.4609239,
                "y": 35.690452699999994,
                "z": "NaN"
            }
        },
        {
            "title": "کافه رستوران سورینو",
            "address": "پیروزی",
            "category": "place",
            "type": "restaurant",
            "region": "تهران، استان تهران",
            "neighbourhood": "محله چهارصد دستگاه",
            "location": {
                "x": 51.461008,
                "y": 35.69035999999999,
                "z": "NaN"
            }
        },
        {
            "title": "رستوران حاج محسن",
            "category": "place",
            "type": "restaurant",
            "region": "تهران، استان تهران",
            "neighbourhood": "محله نیروی هوایی",
            "location": {
                "x": 51.46731185913086,
                "y": 35.69586944580078,
                "z": "NaN"
            }
        },
        {
            "title": "رستوران ترک دنر پیروزی",
            "address": "پیروزی",
            "category": "place",
            "type": "restaurant",
            "region": "تهران، استان تهران",
            "neighbourhood": "محله زاهد گیلانی",
            "location": {
                "x": 51.46005418183223,
                "y": 35.690558215965034,
                "z": "NaN"
            }
        },
        {
            "title": "رستوران پرواز",
            "address": "پیروزی، بیمارستان فجر، شهید بزرگی",
            "category": "place",
            "type": "restaurant",
            "region": "تهران، استان تهران",
            "neighbourhood": "محله نیروی هوایی",
            "location": {
                "x": 51.463211099999995,
                "y": 35.6981471,
                "z": "NaN"
            }
        },
        {
            "title": "حلیم و آش فروشی حاج علی و پسران",
            "address": "پیروزی",
            "category": "place",
            "type": "restaurant",
            "region": "تهران، استان تهران",
            "neighbourhood": "محله زاهد گیلانی",
            "location": {
                "x": 51.45902318868865,
                "y": 35.69056658514173,
                "z": "NaN"
            }
        },
        {
            "title": "رستوران شبستری",
            "address": "پیروزی",
            "category": "place",
            "type": "restaurant",
            "region": "تهران، استان تهران",
            "neighbourhood": "محله صد دستگاه",
            "location": {
                "x": 51.47150622720848,
                "y": 35.69121399117556,
                "z": "NaN"
            }
        },
        {
            "title": "کبابخانه تشریفات گلپایگانی",
            "address": "پیروزی",
            "category": "place",
            "type": "restaurant",
            "region": "تهران، استان تهران",
            "neighbourhood": "محله صد دستگاه",
            "location": {
                "x": 51.47174460000001,
                "y": 35.69121839999999,
                "z": "NaN"
            }
        },
        {
            "title": "سفره خانه سنتی خشت بهشت",
            "address": "پیروزی",
            "category": "place",
            "type": "restaurant",
            "region": "تهران، استان تهران",
            "neighbourhood": "محله صد دستگاه",
            "location": {
                "x": 51.472027461893575,
                "y": 35.69127023816223,
                "z": "NaN"
            }
        },
        {
            "title": "رستوران محمد مهدی",
            "address": "امام علی، صفا شرقی",
            "category": "place",
            "type": "restaurant",
            "region": "تهران، استان تهران",
            "neighbourhood": "محله صفا",
            "location": {
                "x": 51.45525626256561,
                "y": 35.6971232459055,
                "z": "NaN"
            }
        },
        {
            "title": "رستوران مهر",
            "address": "پیروزی، ایلخان",
            "category": "place",
            "type": "restaurant",
            "region": "تهران، استان تهران",
            "neighbourhood": "محله صد دستگاه",
            "location": {
                "x": 51.472168599999996,
                "y": 35.6912119,
                "z": "NaN"
            }
        },
        {
            "title": "سفره خانه سنتی کوروش",
            "address": "پیروزی",
            "category": "place",
            "type": "restaurant",
            "region": "تهران، استان تهران",
            "neighbourhood": "محله چهارصد دستگاه",
            "location": {
                "x": 51.45531420750197,
                "y": 35.689939183142585,
                "z": "NaN"
            }
        },
        {
            "title": "رستوران انتظامی",
            "address": "امام علی، شیخ الرئیس",
            "category": "place",
            "type": "restaurant",
            "region": "تهران، استان تهران",
            "neighbourhood": "محله چهارصد دستگاه",
            "location": {
                "x": 51.45672864220869,
                "y": 35.687451510958475,
                "z": "NaN"
            }
        },
        {
            "title": "پوتی تولند",
            "address": "پیروزی",
            "category": "place",
            "type": "restaurant",
            "region": "تهران، استان تهران",
            "neighbourhood": "محله چهارصد دستگاه",
            "location": {
                "x": 51.4543082,
                "y": 35.689957099999994,
                "z": "NaN"
            }
        },
        {
            "title": "تهیه غذای پویا",
            "address": "امام علی، ثار الله",
            "category": "place",
            "type": "restaurant",
            "region": "تهران، استان تهران",
            "neighbourhood": "محله صفا",
            "location": {
                "x": 51.4550505,
                "y": 35.6986862,
                "z": "NaN"
            }
        },
        {
            "title": "رستوران سنتی ترمه(مهدی)",
            "address": "میدان آیت الله بروجردی",
            "category": "place",
            "type": "restaurant",
            "region": "تهران، استان تهران",
            "neighbourhood": "محله دهم فروردین",
            "location": {
                "x": 51.467074499999995,
                "y": 35.685431200000004,
                "z": "NaN"
            }
        },
        {
            "title": "رستوران آقاجون",
            "address": "آیت الله بروجردی، فیض آبادی",
            "category": "place",
            "type": "restaurant",
            "region": "تهران، استان تهران",
            "neighbourhood": "محله دهم فروردین",
            "location": {
                "x": 51.46710316395148,
                "y": 35.685363588400634,
                "z": "NaN"
            }
        },
        {
            "title": "رستوران شمیم بهشت",
            "address": "پیروزی، زینتی افخم",
            "category": "place",
            "type": "restaurant",
            "region": "تهران، استان تهران",
            "neighbourhood": "محله نیکنام",
            "location": {
                "x": 51.462434,
                "y": 35.684842999999994,
                "z": "NaN"
            }
        },
        {
            "title": "تهیه غذای ادینه",
            "address": "بزرگراه امام علی، نیکنام شرقی",
            "category": "place",
            "type": "restaurant",
            "region": "تهران، استان تهران",
            "neighbourhood": "محله نیکنام",
            "location": {
                "x": 51.460982038806634,
                "y": 35.6847496240623,
                "z": "NaN"
            }
        },
        {
            "title": "کافه رستوران ایتالیایی ژولی",
            "address": "پیروزی",
            "category": "place",
            "type": "restaurant",
            "region": "تهران، استان تهران",
            "neighbourhood": "محله دهقان - کوکاکولا",
            "location": {
                "x": 51.47510707852157,
                "y": 35.69174099405025,
                "z": "NaN"
            }
        },
        {
            "title": "کبابخانه سامان",
            "address": "پیروزی",
            "category": "place",
            "type": "restaurant",
            "region": "تهران، استان تهران",
            "neighbourhood": "محله صد دستگاه",
            "location": {
                "x": 51.475635026274624,
                "y": 35.691440934980484,
                "z": "NaN"
            }
        },
        {
            "title": "کبابی نیکنام",
            "address": "بزرگراه امام علی، شهید درودیان",
            "category": "place",
            "type": "restaurant",
            "region": "تهران، استان تهران",
            "neighbourhood": "محله جابری",
            "location": {
                "x": 51.4567292,
                "y": 35.684944900000005,
                "z": "NaN"
            }
        },
        {
            "title": "تهیه غذای صفا",
            "address": "امام علی، صفا شرقی، منتظری، موسوی",
            "category": "place",
            "type": "restaurant",
            "region": "تهران، استان تهران",
            "neighbourhood": "محله صفا",
            "location": {
                "x": 51.45134255386705,
                "y": 35.696742747868605,
                "z": "NaN"
            }
        },
        {
            "title": "رستوران سنتی بولونی",
            "address": "بزرگراه امام علی، نیکنام غربی",
            "category": "place",
            "type": "restaurant",
            "region": "تهران، استان تهران",
            "neighbourhood": "محله نیکنام",
            "location": {
                "x": 51.457242274628705,
                "y": 35.684505979128474,
                "z": "NaN"
            }
        },
        {
            "title": "کافه رستوران سنتی ماه نو",
            "address": "پیروزی",
            "category": "place",
            "type": "restaurant",
            "region": "تهران، استان تهران",
            "neighbourhood": "محله شکوفه",
            "location": {
                "x": 51.4514259126736,
                "y": 35.68976410910565,
                "z": "NaN"
            }
        },
        {
            "title": "غذاخوری قهرمانی",
            "address": "امیرکبیر",
            "category": "place",
            "type": "restaurant",
            "region": "تهران، استان تهران",
            "neighbourhood": "محله ارگ - پامنار",
            "location": {
                "x": 51.42944239999999,
                "y": 35.68634819999999,
                "z": "NaN"
            }
        },
        {
            "title": "رستوران جوجک سرا",
            "address": "ری، امیرکبیر",
            "category": "place",
            "type": "restaurant",
            "region": "تهران، استان تهران",
            "neighbourhood": "محله ارگ - پامنار",
            "location": {
                "x": 51.43146282066885,
                "y": 35.685578613854126,
                "z": "NaN"
            }
        },
        {
            "title": "دیزی سرای سید",
            "address": "ری، امیرکبیر",
            "category": "place",
            "type": "restaurant",
            "region": "تهران، استان تهران",
            "neighbourhood": "محله امام زاده یحیی",
            "location": {
                "x": 51.4318658,
                "y": 35.68528119999999,
                "z": "NaN"
            }
        },
        {
            "title": "رستوران لوتوس",
            "address": "امیرکبیر",
            "category": "place",
            "type": "restaurant",
            "region": "تهران، استان تهران",
            "neighbourhood": "محله بهارستان",
            "location": {
                "x": 51.431844600000005,
                "y": 35.685601600000005,
                "z": "NaN"
            }
        },
        {
            "title": "رستوران خیام",
            "address": "امیرکبیر، نویدی، حمام سراج الملک",
            "category": "place",
            "type": "restaurant",
            "region": "تهران، استان تهران",
            "neighbourhood": "محله بهارستان",
            "location": {
                "x": 51.4285449,
                "y": 35.687347599999995,
                "z": "NaN"
            }
        },
        {
            "title": "آشکده سرچشمه",
            "address": "ری، امیرکبیر",
            "category": "place",
            "type": "restaurant",
            "region": "تهران، استان تهران",
            "neighbourhood": "محله ایران",
            "location": {
                "x": 51.432046341900325,
                "y": 35.68584572436357,
                "z": "NaN"
            }
        },
        {
            "title": "رستوران برمیس",
            "address": "امیرکبیر، پامنار، موتمن الاطبا",
            "category": "place",
            "type": "restaurant",
            "region": "تهران، استان تهران",
            "neighbourhood": "محله ارگ - پامنار",
            "location": {
                "x": 51.4283923,
                "y": 35.68230359999999,
                "z": "NaN"
            }
        },
        {
            "title": "رستوران سنتی باغ شازده",
            "address": "امیرکبیر، پامنار، موتمن الاطبا",
            "category": "place",
            "type": "restaurant",
            "region": "تهران، استان تهران",
            "neighbourhood": "محله ارگ - پامنار",
            "location": {
                "x": 51.428737999999996,
                "y": 35.68222799999999,
                "z": "NaN"
            }
        },
        {
            "title": "رستوران طریقت",
            "address": "امیرکبیر",
            "category": "place",
            "type": "restaurant",
            "region": "تهران، استان تهران",
            "neighbourhood": "محله بهارستان",
            "location": {
                "x": 51.42570242285729,
                "y": 35.68602063590899,
                "z": "NaN"
            }
        },
        {
            "title": "دیزی دنج",
            "address": "امیرکبیر، ملت",
            "category": "place",
            "type": "restaurant",
            "region": "تهران، استان تهران",
            "neighbourhood": "محله بهارستان",
            "location": {
                "x": 51.42656321550084,
                "y": 35.68757559089859,
                "z": "NaN"
            }
        },
        {
            "title": "تهیه غذای یاس",
            "address": "مصطفی خمینی، نظامیه",
            "category": "place",
            "type": "restaurant",
            "region": "تهران، استان تهران",
            "neighbourhood": "محله بهارستان",
            "location": {
                "x": 51.432002,
                "y": 35.68758299999999,
                "z": "NaN"
            }
        },
        {
            "title": "سویزی",
            "address": "مصطفی خمینی، سرچشمه، دوم",
            "category": "place",
            "type": "restaurant",
            "region": "تهران، استان تهران",
            "neighbourhood": "محله ایران",
            "location": {
                "x": 51.433353399999994,
                "y": 35.68581439999999,
                "z": "NaN"
            }
        },
        {
            "title": "رستوران طریقت نوین",
            "address": "امیرکبیر، بهناز",
            "category": "place",
            "type": "restaurant",
            "region": "تهران، استان تهران",
            "neighbourhood": "محله ارگ - پامنار",
            "location": {
                "x": 51.424758963551945,
                "y": 35.685806734825945,
                "z": "NaN"
            }
        },
        {
            "title": "رستوران امیر جوجه",
            "address": "مصطفی خمینی، امیرکبیر",
            "category": "place",
            "type": "restaurant",
            "region": "تهران، استان تهران",
            "neighbourhood": "محله ایران",
            "location": {
                "x": 51.43366646460299,
                "y": 35.685195075945714,
                "z": "NaN"
            }
        },
        {
            "title": "رستوران طریقت نوین",
            "address": "امیرکبیر، ناظم الاطبا جنوبی، کتانه",
            "category": "place",
            "type": "restaurant",
            "region": "تهران، استان تهران",
            "neighbourhood": "محله ارگ - پامنار",
            "location": {
                "x": 51.4244616,
                "y": 35.68559159999999,
                "z": "NaN"
            }
        },
        {
            "title": "چلوگوشت کایرو (رضا مشهدی)",
            "address": "امیرکبیر، جاویدی",
            "category": "place",
            "type": "restaurant",
            "region": "تهران، استان تهران",
            "neighbourhood": "محله امام زاده یحیی",
            "location": {
                "x": 51.434228474204545,
                "y": 35.68385517245564,
                "z": "NaN"
            }
        },
        {
            "title": "رستوران شریفی",
            "address": "مصطفی خمینی، اعتمادیان",
            "category": "place",
            "type": "restaurant",
            "region": "تهران، استان تهران",
            "neighbourhood": "محله بهارستان",
            "location": {
                "x": 51.431953,
                "y": 35.6885455,
                "z": "NaN"
            }
        },
        {
            "title": "رستوران قهرمانی",
            "address": "امیرکبیر، داوودی",
            "category": "place",
            "type": "restaurant",
            "region": "تهران، استان تهران",
            "neighbourhood": "محله ایران",
            "location": {
                "x": 51.4345289,
                "y": 35.6848618,
                "z": "NaN"
            }
        },
        {
            "title": "رستوران تابان",
            "address": "سعدی جنوبی، اکباتان",
            "category": "place",
            "type": "restaurant",
            "region": "تهران، استان تهران",
            "neighbourhood": "محله بهارستان",
            "location": {
                "x": 51.424712085555,
                "y": 35.68768019357199,
                "z": "NaN"
            }
        },
        {
            "title": "رستوران طریقت نوین",
            "address": "امیرکبیر",
            "category": "place",
            "type": "restaurant",
            "region": "تهران، استان تهران",
            "neighbourhood": "محله ایران",
            "location": {
                "x": 51.434759199999995,
                "y": 35.6846558,
                "z": "NaN"
            }
        },
        {
            "title": "رستوران نون و نمک فخر الملوک",
            "address": "امیرکبیر، جاویدی",
            "category": "place",
            "type": "restaurant",
            "region": "تهران، استان تهران",
            "neighbourhood": "محله امام زاده یحیی",
            "location": {
                "x": 51.433611899999995,
                "y": 35.6821279,
                "z": "NaN"
            }
        },
        {
            "title": "چلوکباب کمال الملک",
            "address": "مصطفی خمینی",
            "category": "place",
            "type": "restaurant",
            "region": "تهران، استان تهران",
            "neighbourhood": "محله بهارستان",
            "location": {
                "x": 51.43226015114694,
                "y": 35.68893609041456,
                "z": "NaN"
            }
        },
        {
            "title": "رستوران آذربایجان",
            "address": "سعدی جنوبی",
            "category": "place",
            "type": "restaurant",
            "region": "تهران، استان تهران",
            "neighbourhood": "محله ارگ - پامنار",
            "location": {
                "x": 51.423404100000006,
                "y": 35.68342329999999,
                "z": "NaN"
            }
        },
        {
            "title": "سفره خانه هزار دستان",
            "address": "مصطفی خمینی، تکیه رضا قلی خان",
            "category": "place",
            "type": "restaurant",
            "region": "تهران، استان تهران",
            "neighbourhood": "محله ارگ - پامنار",
            "location": {
                "x": 51.4307547,
                "y": 35.68015589999999,
                "z": "NaN"
            }
        },
        {
            "title": "رستوران سنتی هتل شهریار",
            "address": "سعدی جنوبی",
            "category": "place",
            "type": "restaurant",
            "region": "تهران، استان تهران",
            "neighbourhood": "محله ارگ - پامنار",
            "location": {
                "x": 51.42323530919266,
                "y": 35.68359911280359,
                "z": "NaN"
            }
        },
        {
            "title": "دیزی سرای شیرازی",
            "address": "مصطفی خمینی، 15 خرداد، بازارچه عودلاجان، نیک ضمیر",
            "category": "place",
            "type": "restaurant",
            "region": "تهران، استان تهران",
            "neighbourhood": "محله ارگ - پامنار",
            "location": {
                "x": 51.428138665013385,
                "y": 35.679961405038675,
                "z": "NaN"
            }
        },
        {
            "title": "رستوران سفیر",
            "address": "مصطفی خمینی",
            "category": "place",
            "type": "restaurant",
            "region": "تهران، استان تهران",
            "neighbourhood": "محله ارگ - پامنار",
            "location": {
                "x": 51.430800999999995,
                "y": 35.67997129999999,
                "z": "NaN"
            }
        },
        {
            "title": "آش وحلیم سرای مجید",
            "address": "امیرکبیر، دیالمه",
            "category": "place",
            "type": "restaurant",
            "region": "تهران، استان تهران",
            "neighbourhood": "محله ایران",
            "location": {
                "x": 51.43563229922512,
                "y": 35.685484788413596,
                "z": "NaN"
            }
        },
        {
            "title": "جوجه ذغالی سنجاقک",
            "address": "سعدی جنوبی، پست",
            "category": "place",
            "type": "restaurant",
            "region": "تهران، استان تهران",
            "neighbourhood": "محله ارگ - پامنار",
            "location": {
                "x": 51.4226119,
                "y": 35.68443199999999,
                "z": "NaN"
            }
        },
        {
            "title": "رستوران شاطر عباس",
            "address": "سعدی جنوبی، مژدهی",
            "category": "place",
            "type": "restaurant",
            "region": "تهران، استان تهران",
            "neighbourhood": "محله بهارستان",
            "location": {
                "x": 51.424160799999996,
                "y": 35.688476,
                "z": "NaN"
            }
        },
        {
            "title": "رستوران طهران لقمه",
            "address": "دکتر فاطمی، بزرگراه شهید گمنام",
            "category": "place",
            "type": "restaurant",
            "region": "تهران، استان تهران",
            "neighbourhood": "محله جهاد",
            "location": {
                "x": 51.4049334,
                "y": 35.71997890000001,
                "z": "NaN"
            }
        },
        {
            "title": "آشکده گندم",
            "address": "بزرگراه شهید گمنام، جهانمهر، دوم الف",
            "category": "place",
            "type": "restaurant",
            "region": "تهران، استان تهران",
            "neighbourhood": "محله جهاد",
            "location": {
                "x": 51.40514345773839,
                "y": 35.72043717701345,
                "z": "NaN"
            }
        },
        {
            "title": "رستوران خودمونی",
            "address": "دکتر فاطمی، بیستون",
            "category": "place",
            "type": "restaurant",
            "region": "تهران، استان تهران",
            "neighbourhood": "محله جهاد",
            "location": {
                "x": 51.405150949939824,
                "y": 35.72043749528431,
                "z": "NaN"
            }
        },
        {
            "title": "رستوران فلفل قرمز",
            "address": "دکتر فاطمی، بیستون، گل",
            "category": "place",
            "type": "restaurant",
            "region": "تهران، استان تهران",
            "neighbourhood": "محله جهاد",
            "location": {
                "x": 51.40520718159733,
                "y": 35.7204346880977,
                "z": "NaN"
            }
        },
        {
            "title": "رستوران لمون",
            "address": "فاطمی، مصیری",
            "category": "place",
            "type": "restaurant",
            "region": "تهران، استان تهران",
            "neighbourhood": "محله جهاد",
            "location": {
                "x": 51.40606050000002,
                "y": 35.71990680000001,
                "z": "NaN"
            }
        },
        {
            "title": "رستوران بینج",
            "address": "فاطمی، مصیری",
            "category": "place",
            "type": "restaurant",
            "region": "تهران، استان تهران",
            "neighbourhood": "محله کشاورز - پارک لاله",
            "location": {
                "x": 51.4061611,
                "y": 35.71989859999999,
                "z": "NaN"
            }
        },
        {
            "title": "جگرسرا و کبابی فاطمی",
            "address": "دکتر فاطمی، شهید اصغر میرزایی بی غش",
            "category": "place",
            "type": "restaurant",
            "region": "تهران، استان تهران",
            "neighbourhood": "محله کشاورز - پارک لاله",
            "location": {
                "x": 51.402347712415406,
                "y": 35.71852985615733,
                "z": "NaN"
            }
        },
        {
            "title": "کانتینر برگر",
            "address": "دکتر فاطمی، شهید اصغر میرزایی بی غش",
            "category": "place",
            "type": "restaurant",
            "region": "تهران، استان تهران",
            "neighbourhood": "محله کشاورز - پارک لاله",
            "location": {
                "x": 51.40222910000001,
                "y": 35.7186604,
                "z": "NaN"
            }
        },
        {
            "title": "رستوران نخل هتل کارون",
            "address": "ولیعصر، غفاری",
            "category": "place",
            "type": "restaurant",
            "region": "تهران، استان تهران",
            "neighbourhood": "محله کشاورز - پارک لاله",
            "location": {
                "x": 51.40666441037024,
                "y": 35.71829815551711,
                "z": "NaN"
            }
        },
        {
            "title": "مکث برگر",
            "address": "بزرگراه شهید گمنام",
            "category": "place",
            "type": "restaurant",
            "region": "تهران، استان تهران",
            "neighbourhood": "محله فاطمی",
            "location": {
                "x": 51.4030217,
                "y": 35.7205952,
                "z": "NaN"
            }
        },
        {
            "title": "رستوران امیر املت",
            "address": "فاطمی، چهلستون",
            "category": "place",
            "type": "restaurant",
            "region": "تهران، استان تهران",
            "neighbourhood": "محله جهاد",
            "location": {
                "x": 51.406232160613136,
                "y": 35.72046521636087,
                "z": "NaN"
            }
        },
        {
            "title": "رستوران گارنیش",
            "address": "فاطمی",
            "category": "place",
            "type": "restaurant",
            "region": "تهران، استان تهران",
            "neighbourhood": "محله کشاورز - پارک لاله",
            "location": {
                "x": 51.4069253,
                "y": 35.72018689999999,
                "z": "NaN"
            }
        },
        {
            "title": "رستوران کیان",
            "address": "ولیعصر، زرتشت غربی",
            "category": "place",
            "type": "restaurant",
            "region": "تهران، استان تهران",
            "neighbourhood": "محله کشاورز - پارک لاله",
            "location": {
                "x": 51.40419279999999,
                "y": 35.716508,
                "z": "NaN"
            }
        },
        {
            "title": "کافه رستوران سرای سنتی سراج",
            "address": "ولیعصر، زرتشت غربی",
            "category": "place",
            "type": "restaurant",
            "region": "تهران، استان تهران",
            "neighbourhood": "محله کشاورز - پارک لاله",
            "location": {
                "x": 51.406035100000004,
                "y": 35.716829800000006,
                "z": "NaN"
            }
        },
        {
            "title": "رستوران سورچین",
            "address": "فاطمی، مصیری",
            "category": "place",
            "type": "restaurant",
            "region": "تهران، استان تهران",
            "neighbourhood": "محله کشاورز - پارک لاله",
            "location": {
                "x": 51.40791970000001,
                "y": 35.71982379999999,
                "z": "NaN"
            }
        },
        {
            "title": "رستوران تن دی",
            "address": "ولیعصر، زرتشت غربی، یزدان",
            "category": "place",
            "type": "restaurant",
            "region": "تهران، استان تهران",
            "neighbourhood": "محله کشاورز - پارک لاله",
            "location": {
                "x": 51.40738188207668,
                "y": 35.71720690692463,
                "z": "NaN"
            }
        },
        {
            "title": "رستوران شمس",
            "address": "دکتر فاطمی",
            "category": "place",
            "type": "restaurant",
            "region": "تهران، استان تهران",
            "neighbourhood": "محله کشاورز - پارک لاله",
            "location": {
                "x": 51.400850923433175,
                "y": 35.71810536099061,
                "z": "NaN"
            }
        },
        {
            "title": "برگر ذغالی هیچ",
            "address": "ولیعصر",
            "category": "place",
            "type": "restaurant",
            "region": "تهران، استان تهران",
            "neighbourhood": "محله کشاورز - پارک لاله",
            "location": {
                "x": 51.40833139999999,
                "y": 35.71902869999999,
                "z": "NaN"
            }
        },
        {
            "title": "کسری",
            "address": "ولیعصر",
            "category": "place",
            "type": "restaurant",
            "region": "تهران، استان تهران",
            "neighbourhood": "محله کشاورز - پارک لاله",
            "location": {
                "x": 51.4083608,
                "y": 35.718973699999985,
                "z": "NaN"
            }
        },
        {
            "title": "رستوران زرتشت",
            "address": "ولیعصر، زرتشت غربی",
            "category": "place",
            "type": "restaurant",
            "region": "تهران، استان تهران",
            "neighbourhood": "محله کشاورز - پارک لاله",
            "location": {
                "x": 51.4027423,
                "y": 35.716138799999996,
                "z": "NaN"
            }
        },
        {
            "title": "نان داغ کباب داغ راک",
            "address": "دکتر فاطمی، هشت بهشت",
            "category": "place",
            "type": "restaurant",
            "region": "تهران، استان تهران",
            "neighbourhood": "محله فاطمی",
            "location": {
                "x": 51.400535969093575,
                "y": 35.71875844401146,
                "z": "NaN"
            }
        },
        {
            "title": "کبابسرای گلپایگانی",
            "address": "دکتر فاطمی، هشت بهشت",
            "category": "place",
            "type": "restaurant",
            "region": "تهران، استان تهران",
            "neighbourhood": "محله فاطمی",
            "location": {
                "x": 51.40051003862796,
                "y": 35.71881327570641,
                "z": "NaN"
            }
        },
        {
            "title": "رستوران هاب برگر",
            "address": "ولیعصر، زرتشت غربی",
            "category": "place",
            "type": "restaurant",
            "region": "تهران، استان تهران",
            "neighbourhood": "محله کشاورز - پارک لاله",
            "location": {
                "x": 51.402337694375184,
                "y": 35.7161943047298,
                "z": "NaN"
            }
        },
        {
            "title": "کافه رستوران تاپو",
            "address": "ولیعصر، امینی",
            "category": "place",
            "type": "restaurant",
            "region": "تهران، استان تهران",
            "neighbourhood": "محله کشاورز - پارک لاله",
            "location": {
                "x": 51.40531259972948,
                "y": 35.715755989193475,
                "z": "NaN"
            }
        },
        {
            "title": "رستوران قصر گلها",
            "address": "بزرگراه شهید گمنام، 2/1",
            "category": "place",
            "type": "restaurant",
            "region": "تهران، استان تهران",
            "neighbourhood": "محله جهاد",
            "location": {
                "x": 51.401875,
                "y": 35.721743999999994,
                "z": "NaN"
            }
        },
        {
            "title": "رستوران اخاله",
            "address": "ولیعصر",
            "category": "place",
            "type": "restaurant",
            "region": "تهران، استان تهران",
            "neighbourhood": "محله کشاورز - پارک لاله",
            "location": {
                "x": 51.407899199999996,
                "y": 35.7167734,
                "z": "NaN"
            }
        },
        {
            "title": "مامان پز",
            "address": "فاطمی",
            "category": "place",
            "type": "restaurant",
            "region": "تهران، استان تهران",
            "neighbourhood": "محله جهاد",
            "location": {
                "x": 51.408108000000006,
                "y": 35.72093399999999,
                "z": "NaN"
            }
        },
        {
            "title": "سفره امیران",
            "address": "ولیعصر، امینی",
            "category": "place",
            "type": "restaurant",
            "region": "تهران، استان تهران",
            "neighbourhood": "محله کشاورز - پارک لاله",
            "location": {
                "x": 51.40767290000001,
                "y": 35.7164476,
                "z": "NaN"
            }
        },
        {
            "title": "غذاسرای اصیل",
            "address": "بزرگراه شهید گمنام، رادافزون (4/1)",
            "category": "place",
            "type": "restaurant",
            "region": "تهران، استان تهران",
            "neighbourhood": "محله جهاد",
            "location": {
                "x": 51.4025063,
                "y": 35.722268699999994,
                "z": "NaN"
            }
        },
        {
            "title": "رستوران سنتی جم",
            "address": "ولیعصر، امینی",
            "category": "place",
            "type": "restaurant",
            "region": "تهران، استان تهران",
            "neighbourhood": "محله کشاورز - پارک لاله",
            "location": {
                "x": 51.4077501,
                "y": 35.716350699999985,
                "z": "NaN"
            }
        },
        {
            "title": "موبی دیک",
            "address": "بزرگراه شهید حجازی، صارمی",
            "category": "place",
            "type": "restaurant",
            "region": "تهران، استان تهران",
            "neighbourhood": "محله اکباتان",
            "location": {
                "x": 51.3054298,
                "y": 35.714299299999986,
                "z": "NaN"
            }
        },
        {
            "title": "رستوران پاستارون",
            "address": "بزرگراه شهید حجازی، صارمی",
            "category": "place",
            "type": "restaurant",
            "region": "تهران، استان تهران",
            "neighbourhood": "محله اکباتان",
            "location": {
                "x": 51.30609260000001,
                "y": 35.7144276,
                "z": "NaN"
            }
        },
        {
            "title": "غذای آریش",
            "address": "بزرگراه شهید حجازی، شقایق، سی و سوم",
            "category": "place",
            "type": "restaurant",
            "region": "تهران، استان تهران",
            "neighbourhood": "شهرک پرواز",
            "location": {
                "x": 51.3036632,
                "y": 35.7208859,
                "z": "NaN"
            }
        },
        {
            "title": "رستوران ارکیده طلایی",
            "address": "بزرگراه ستاری، هگمتانه یکم، صارمی",
            "category": "place",
            "type": "restaurant",
            "region": "تهران، استان تهران",
            "neighbourhood": "محله اکباتان",
            "location": {
                "x": 51.306312999999996,
                "y": 35.708400399999995,
                "z": "NaN"
            }
        },
        {
            "title": "رستوران شهربازی پارک ارم سبز",
            "address": "بزرگراه شهید حجازی، بزرگراه باکری، ارم چهارم، استاد شهریار",
            "category": "place",
            "type": "restaurant",
            "region": "تهران، استان تهران",
            "neighbourhood": "محله ارم",
            "location": {
                "x": 51.293979190522805,
                "y": 35.72164218628853,
                "z": "NaN"
            }
        },
        {
            "title": "سوریزو",
            "address": "بزرگراه ستاری، هگمتانه یکم، صارمی، محقق سعید",
            "category": "place",
            "type": "restaurant",
            "region": "تهران، استان تهران",
            "neighbourhood": "محله اکباتان",
            "location": {
                "x": 51.305933420573,
                "y": 35.70796456395199,
                "z": "NaN"
            }
        },
        {
            "title": "رستوران جزیره پارک ارم",
            "address": "ارم، استاد شهریار، ارم پنجم",
            "category": "place",
            "type": "restaurant",
            "region": "تهران، استان تهران",
            "neighbourhood": "محله ارم",
            "location": {
                "x": 51.29229605197907,
                "y": 35.72053535226803,
                "z": "NaN"
            }
        },
        {
            "title": "کباب خلیلی",
            "address": "ناصر حجازی، پروانه جنوبی",
            "category": "place",
            "type": "restaurant",
            "region": "تهران، استان تهران",
            "neighbourhood": "شهرک پرواز",
            "location": {
                "x": 51.3053354,
                "y": 35.723571,
                "z": "NaN"
            }
        },
        {
            "title": "رستوران شهربازی پارک ارم سبز",
            "address": "ارم، استاد شهریار، ارم پنجم",
            "category": "place",
            "type": "restaurant",
            "region": "تهران، استان تهران",
            "neighbourhood": "محله ارم",
            "location": {
                "x": 51.29300955100917,
                "y": 35.72263806007138,
                "z": "NaN"
            }
        },
        {
            "title": "کافه رستوران آوان",
            "address": "بزرگراه ستاری، شکوری غربی",
            "category": "place",
            "type": "restaurant",
            "region": "تهران، استان تهران",
            "neighbourhood": "محله اکباتان",
            "location": {
                "x": 51.31262265193346,
                "y": 35.71324728785845,
                "z": "NaN"
            }
        },
        {
            "title": "غذای خانگی سلامت",
            "address": "بزرگراه ستاری، شکوری غربی",
            "category": "place",
            "type": "restaurant",
            "region": "تهران، استان تهران",
            "neighbourhood": "محله اکباتان",
            "location": {
                "x": 51.3126332,
                "y": 35.71195449999999,
                "z": "NaN"
            }
        },
        {
            "title": "کافه رستوران گاندو",
            "address": "بزرگراه ستاری، شکوری غربی",
            "category": "place",
            "type": "restaurant",
            "region": "تهران، استان تهران",
            "neighbourhood": "محله اکباتان",
            "location": {
                "x": 51.3128128,
                "y": 35.7118691,
                "z": "NaN"
            }
        },
        {
            "title": "رستوران تاتلی",
            "address": "بزرگراه ستاری، بوذری، شهید امیر علیزاده",
            "category": "place",
            "type": "restaurant",
            "region": "تهران، استان تهران",
            "neighbourhood": "محله اکباتان",
            "location": {
                "x": 51.31189579999999,
                "y": 35.71004599999999,
                "z": "NaN"
            }
        },
        {
            "title": "پک خوشمزه",
            "address": "بزرگراه ستاری، بوذری، شهید امیر علیزاده",
            "category": "place",
            "type": "restaurant",
            "region": "تهران، استان تهران",
            "neighbourhood": "محله اکباتان",
            "location": {
                "x": 51.312369000000004,
                "y": 35.710753000000004,
                "z": "NaN"
            }
        },
        {
            "title": "فود کورت هایپر استار",
            "address": "بزرگراه باکری، ارم",
            "category": "place",
            "type": "restaurant",
            "region": "تهران، استان تهران",
            "neighbourhood": "محله ارم",
            "location": {
                "x": 51.2953525,
                "y": 35.7259994,
                "z": "NaN"
            }
        },
        {
            "title": "رستوران ایرانی کدبانو",
            "address": "بزرگراه ستاری، بوذری",
            "category": "place",
            "type": "restaurant",
            "region": "تهران، استان تهران",
            "neighbourhood": "محله اکباتان",
            "location": {
                "x": 51.310612786161464,
                "y": 35.70685319317559,
                "z": "NaN"
            }
        },
        {
            "title": "رستوران هانی",
            "address": "بزرگراه باکری، ارم",
            "category": "place",
            "type": "restaurant",
            "region": "تهران، استان تهران",
            "neighbourhood": "محله ارم",
            "location": {
                "x": 51.2953404,
                "y": 35.72620729999999,
                "z": "NaN"
            }
        },
        {
            "title": "فود کورت مگامال",
            "address": "بزرگراه ستاری، هگمتانه دوم، صارمی",
            "category": "place",
            "type": "restaurant",
            "region": "تهران، استان تهران",
            "neighbourhood": "محله اکباتان",
            "location": {
                "x": 51.3081452,
                "y": 35.70508389999999,
                "z": "NaN"
            }
        },
        {
            "title": "کبابسرای بی بی",
            "address": "بزرگراه ستاری، هگمتانه دوم، صارمی",
            "category": "place",
            "type": "restaurant",
            "region": "تهران، استان تهران",
            "neighbourhood": "محله اکباتان",
            "location": {
                "x": 51.30588919999999,
                "y": 35.70410029999999,
                "z": "NaN"
            }
        },
        {
            "title": "رستوران رفقا",
            "address": "بزرگراه ستاری، هگمتانه دوم",
            "category": "place",
            "type": "restaurant",
            "region": "تهران، استان تهران",
            "neighbourhood": "محله اکباتان",
            "location": {
                "x": 51.308186,
                "y": 35.704878,
                "z": "NaN"
            }
        },
        {
            "title": "کافه رستوران برجسته",
            "address": "بزرگراه ستاری، هگمتانه دوم",
            "category": "place",
            "type": "restaurant",
            "region": "تهران، استان تهران",
            "neighbourhood": "محله اکباتان",
            "location": {
                "x": 51.30884827567622,
                "y": 35.70511545607273,
                "z": "NaN"
            }
        },
        {
            "title": "مزه بازار اکباتان",
            "address": "بزرگراه ستاری، هگمتانه دوم",
            "category": "place",
            "type": "restaurant",
            "region": "تهران، استان تهران",
            "neighbourhood": "محله اکباتان",
            "location": {
                "x": 51.30910147596924,
                "y": 35.70523280574611,
                "z": "NaN"
            }
        },
        {
            "title": "کافه رستوران دوراک",
            "address": "بزرگراه ستاری، هگمتانه دوم، صارمی",
            "category": "place",
            "type": "restaurant",
            "region": "تهران، استان تهران",
            "neighbourhood": "محله اکباتان",
            "location": {
                "x": 51.30579990048267,
                "y": 35.70384356905041,
                "z": "NaN"
            }
        },
        {
            "title": "رستوران مجلل",
            "address": "بزرگراه ستاری، شکوری غربی، نفیسی",
            "category": "place",
            "type": "restaurant",
            "region": "تهران، استان تهران",
            "neighbourhood": "محله اکباتان",
            "location": {
                "x": 51.315434576542714,
                "y": 35.71275099111748,
                "z": "NaN"
            }
        },
        {
            "title": "رستوران لقانطه",
            "address": "بزرگراه ستاری، شکوری غربی، نفیسی",
            "category": "place",
            "type": "restaurant",
            "region": "تهران، استان تهران",
            "neighbourhood": "محله اکباتان",
            "location": {
                "x": 51.31580254673889,
                "y": 35.71293951539853,
                "z": "NaN"
            }
        },
        {
            "title": "گامور",
            "address": "بزرگراه ستاری، هگمتانه دوم، صارمی",
            "category": "place",
            "type": "restaurant",
            "region": "تهران، استان تهران",
            "neighbourhood": "محله اکباتان",
            "location": {
                "x": 51.30544810000001,
                "y": 35.70344659999999,
                "z": "NaN"
            }
        },
        {
            "title": "رستوران رادین",
            "address": "بزرگراه لشگری، شهدای صنایع هوایی، گلزار",
            "category": "place",
            "type": "restaurant",
            "region": "تهران، استان تهران",
            "neighbourhood": "محله اکباتان",
            "location": {
                "x": 51.305100917816,
                "y": 35.70334557030899,
                "z": "NaN"
            }
        },
        {
            "title": "کبابی گلستان",
            "address": "ناصر حجازی",
            "category": "place",
            "type": "restaurant",
            "region": "تهران، استان تهران",
            "neighbourhood": "محله سازمان برنامه جنوبی",
            "location": {
                "x": 51.3027392819401,
                "y": 35.72786740264517,
                "z": "NaN"
            }
        },
        {
            "title": "کافه رستوران صبرو",
            "address": "بزرگراه ستاری، هگمتانه دوم، صارمی",
            "category": "place",
            "type": "restaurant",
            "region": "تهران، استان تهران",
            "neighbourhood": "محله اکباتان",
            "location": {
                "x": 51.3056578,
                "y": 35.7032657,
                "z": "NaN"
            }
        },
        {
            "title": "رستوران ققنوس",
            "address": "فردوس، ابراهیمی پوربسابی شمالی",
            "category": "place",
            "type": "restaurant",
            "region": "تهران، استان تهران",
            "neighbourhood": "محله فردوس",
            "location": {
                "x": 51.310888472413,
                "y": 35.72505749400099,
                "z": "NaN"
            }
        },
        {
            "title": "رستوران و تالار ارغوان",
            "address": "امام حسین، وفایی پور",
            "category": "place",
            "type": "restaurant",
            "region": "ری، استان تهران",
            "neighbourhood": "محله دیلمان",
            "location": {
                "x": 51.43456003867127,
                "y": 35.60421060550052,
                "z": "NaN"
            }
        },
        {
            "title": "رستوران کد بانوی ری",
            "address": "بزرگراه شهید کریمی، منتظری جنوبی",
            "category": "place",
            "type": "restaurant",
            "region": "ری، استان تهران",
            "neighbourhood": "محله دیلمان",
            "location": {
                "x": 51.43152365640108,
                "y": 35.60318500898324,
                "z": "NaN"
            }
        },
        {
            "title": "رستوران پاسارگاد",
            "address": "امام حسین",
            "category": "place",
            "type": "restaurant",
            "region": "ری، استان تهران",
            "neighbourhood": "محله دیلمان",
            "location": {
                "x": 51.43074879838999,
                "y": 35.603264859987256,
                "z": "NaN"
            }
        },
        {
            "title": "میزبان",
            "address": "فدائیان اسلام، کاتوزیان دوم",
            "category": "place",
            "type": "restaurant",
            "region": "ری، استان تهران",
            "neighbourhood": "محله دیلمان",
            "location": {
                "x": 51.43809092200803,
                "y": 35.60672024584986,
                "z": "NaN"
            }
        },
        {
            "title": "سرای سنتی دیلمان",
            "address": "امام حسین",
            "category": "place",
            "type": "restaurant",
            "region": "ری، استان تهران",
            "neighbourhood": "محله دیلمان",
            "location": {
                "x": 51.43086549447617,
                "y": 35.6030243856072,
                "z": "NaN"
            }
        },
        {
            "title": "تهیه غذا میزبان",
            "address": "فدائیان اسلام",
            "category": "place",
            "type": "restaurant",
            "region": "ری، استان تهران",
            "neighbourhood": "محله دیلمان",
            "location": {
                "x": 51.43822968006099,
                "y": 35.60675000201699,
                "z": "NaN"
            }
        },
        {
            "title": "رستوران خوب",
            "address": "بزرگراه شهید کریمی، فدائیان اسلام",
            "category": "place",
            "type": "restaurant",
            "region": "ری، استان تهران",
            "neighbourhood": "محله دیلمان",
            "location": {
                "x": 51.4379487,
                "y": 35.60565059999998,
                "z": "NaN"
            }
        },
        {
            "title": "رستوران خوش نمک",
            "address": "فدائیان اسلام",
            "category": "place",
            "type": "restaurant",
            "region": "ری، استان تهران",
            "neighbourhood": "محله دیلمان",
            "location": {
                "x": 51.4380196153608,
                "y": 35.60548629056433,
                "z": "NaN"
            }
        },
        {
            "title": "رستوران ضیافت ری",
            "address": "امام حسین، مصطفی خمینی، خسروی",
            "category": "place",
            "type": "restaurant",
            "region": "ری، استان تهران",
            "neighbourhood": "محله دیلمان",
            "location": {
                "x": 51.42819364269588,
                "y": 35.60365966012951,
                "z": "NaN"
            }
        },
        {
            "title": "رستوران برگر سیتی",
            "address": "فدائیان اسلام، صاحبی",
            "category": "place",
            "type": "restaurant",
            "region": "ری، استان تهران",
            "neighbourhood": "محله شهید غیوری",
            "location": {
                "x": 51.4383132,
                "y": 35.604875899999975,
                "z": "NaN"
            }
        },
        {
            "title": "رستوران ممدخان",
            "address": "فدائیان اسلام، صاحبی",
            "category": "place",
            "type": "restaurant",
            "region": "ری، استان تهران",
            "neighbourhood": "محله شهید غیوری",
            "location": {
                "x": 51.4383272,
                "y": 35.604653400000004,
                "z": "NaN"
            }
        },
        {
            "title": "کافه رستوران سرخپوست",
            "address": "امام حسین، سالاری",
            "category": "place",
            "type": "restaurant",
            "region": "ری، استان تهران",
            "neighbourhood": "محله دیلمان",
            "location": {
                "x": 51.42796154042711,
                "y": 35.603266547014755,
                "z": "NaN"
            }
        },
        {
            "title": "رستوران مجلل",
            "address": "امام حسین",
            "category": "place",
            "type": "restaurant",
            "region": "ری، استان تهران",
            "neighbourhood": "محله دیلمان",
            "location": {
                "x": 51.4272418,
                "y": 35.603406799999995,
                "z": "NaN"
            }
        },
        {
            "title": "سفره خانه سنتی",
            "address": "امام حسین، سالاری، توکلی راد",
            "category": "place",
            "type": "restaurant",
            "region": "ری، استان تهران",
            "neighbourhood": "محله دیلمان",
            "location": {
                "x": 51.426970100000005,
                "y": 35.60335349999999,
                "z": "NaN"
            }
        },
        {
            "title": "سفره خانه سنتی مهتاب",
            "address": "فدائیان اسلام، شهید سرگرد محمدی",
            "category": "place",
            "type": "restaurant",
            "region": "ری، استان تهران",
            "neighbourhood": "محله منصوریه منگل",
            "location": {
                "x": 51.439022678422,
                "y": 35.61103959047204,
                "z": "NaN"
            }
        },
        {
            "title": "رستوران آشپزباشی",
            "address": "امام حسین",
            "category": "place",
            "type": "restaurant",
            "region": "ری، استان تهران",
            "neighbourhood": "محله دیلمان",
            "location": {
                "x": 51.43806,
                "y": 35.60186259999999,
                "z": "NaN"
            }
        },
        {
            "title": "رستوران شهرزاد",
            "address": "غیوری شمالی",
            "category": "place",
            "type": "restaurant",
            "region": "ری، استان تهران",
            "neighbourhood": "محله منصوریه منگل",
            "location": {
                "x": 51.441986131282796,
                "y": 35.60636964350614,
                "z": "NaN"
            }
        },
        {
            "title": "کافه رستوران دلی",
            "address": "غیوری شمالی",
            "category": "place",
            "type": "restaurant",
            "region": "ری، استان تهران",
            "neighbourhood": "محله منصوریه منگل",
            "location": {
                "x": 51.4419845410316,
                "y": 35.606324074582915,
                "z": "NaN"
            }
        },
        {
            "title": "رستوران بیستون",
            "address": "فدائیان اسلام",
            "category": "place",
            "type": "restaurant",
            "region": "ری، استان تهران",
            "neighbourhood": "محله شهید غیوری",
            "location": {
                "x": 51.438753181736494,
                "y": 35.60099863664884,
                "z": "NaN"
            }
        },
        {
            "title": "برگر مرگر",
            "address": "فدائیان اسلام، کوهپایگانی",
            "category": "place",
            "type": "restaurant",
            "region": "ری، استان تهران",
            "neighbourhood": "محله دیلمان",
            "location": {
                "x": 51.438648099999995,
                "y": 35.600844699999996,
                "z": "NaN"
            }
        },
        {
            "title": "غذای میهمان",
            "address": "یزدانخواه",
            "category": "place",
            "type": "restaurant",
            "region": "ری، استان تهران",
            "neighbourhood": "محله فیروز آبادی",
            "location": {
                "x": 51.431972,
                "y": 35.598546,
                "z": "NaN"
            }
        },
        {
            "title": "کبابی سید بابا",
            "address": "بلوار دستواره، غیبی، حسن پور، نسترن",
            "category": "place",
            "type": "restaurant",
            "region": "ری، استان تهران",
            "neighbourhood": "محله جوانمرد قصاب",
            "location": {
                "x": 51.42959929999999,
                "y": 35.616866599999994,
                "z": "NaN"
            }
        },
        {
            "title": "رستوران سایوان",
            "address": "بلوار بسیج، شهادت",
            "category": "place",
            "type": "restaurant",
            "region": "ری، استان تهران",
            "neighbourhood": "محله شهادت",
            "location": {
                "x": 51.4428481,
                "y": 35.61426470000001,
                "z": "NaN"
            }
        },
        {
            "title": "کول کاپ",
            "address": "فدائیان اسلام، غیبی",
            "category": "place",
            "type": "restaurant",
            "region": "ری، استان تهران",
            "neighbourhood": "محله جوانمرد قصاب",
            "location": {
                "x": 51.4360438186101,
                "y": 35.61828491482184,
                "z": "NaN"
            }
        },
        {
            "title": "رستوران پلوچی",
            "address": "ابن بابویه، صفری",
            "category": "place",
            "type": "restaurant",
            "region": "ری، استان تهران",
            "neighbourhood": "محله ظهیر آباد",
            "location": {
                "x": 51.44287570088638,
                "y": 35.599898739826195,
                "z": "NaN"
            }
        },
        {
            "title": "رستوران پلو چی",
            "address": "شهید غلامی، صادقی",
            "category": "place",
            "type": "restaurant",
            "region": "ری، استان تهران",
            "neighbourhood": "محله ظهیر آباد",
            "location": {
                "x": 51.442804875824,
                "y": 35.59968546065299,
                "z": "NaN"
            }
        },
        {
            "title": "رستوران تشریفات",
            "address": "شهید غلامی، صادقی",
            "category": "place",
            "type": "restaurant",
            "region": "ری، استان تهران",
            "neighbourhood": "محله ظهیر آباد",
            "location": {
                "x": 51.442803323152496,
                "y": 35.599528125012824,
                "z": "NaN"
            }
        },
        {
            "title": "کبابسرای الغدیر",
            "address": "قربانی، صمدی",
            "category": "place",
            "type": "restaurant",
            "region": "ری، استان تهران",
            "neighbourhood": "محله فیروز آبادی",
            "location": {
                "x": 51.43291847697543,
                "y": 35.59582691716654,
                "z": "NaN"
            }
        },
        {
            "title": "کافه رستوران کهربا",
            "address": "ابن بابویه",
            "category": "place",
            "type": "restaurant",
            "region": "ری، استان تهران",
            "neighbourhood": "محله صفاییه",
            "location": {
                "x": 51.44683249999999,
                "y": 35.60507030000001,
                "z": "NaN"
            }
        },
        {
            "title": "پیل برگر",
            "address": "فدائیان اسلام",
            "category": "place",
            "type": "restaurant",
            "region": "ری، استان تهران",
            "neighbourhood": "محله اقدسیه",
            "location": {
                "x": 51.43956469999999,
                "y": 35.596625100000004,
                "z": "NaN"
            }
        },
        {
            "title": "کافه رستوران پازیریک",
            "address": "کریمخان زند، شاهد",
            "category": "place",
            "type": "restaurant",
            "region": "تهران، استان تهران",
            "neighbourhood": "محله بهجت آباد",
            "location": {
                "x": 51.408041028475346,
                "y": 35.712273803599224,
                "z": "NaN"
            }
        },
        {
            "title": "رستوران تهران پاریس",
            "address": "ولیعصر، کریمخان زند",
            "category": "place",
            "type": "restaurant",
            "region": "تهران، استان تهران",
            "neighbourhood": "محله بهجت آباد",
            "location": {
                "x": 51.40733520000506,
                "y": 35.71244716146881,
                "z": "NaN"
            }
        },
        {
            "title": "کافه رستوران لامپ",
            "address": "ولیعصر، سازش، یکم",
            "category": "place",
            "type": "restaurant",
            "region": "تهران، استان تهران",
            "neighbourhood": "محله ولیعصر",
            "location": {
                "x": 51.407695770263665,
                "y": 35.71101760864257,
                "z": "NaN"
            }
        },
        {
            "title": "سفره خانه سنتی شقایق",
            "address": "ولیعصر، شهیدان سازش (شقایق)، یکم",
            "category": "place",
            "type": "restaurant",
            "region": "تهران، استان تهران",
            "neighbourhood": "محله ولیعصر",
            "location": {
                "x": 51.407705393048104,
                "y": 35.710979053193995,
                "z": "NaN"
            }
        },
        {
            "title": "فست فود سی دل",
            "address": "ولیعصر، ارژنگ",
            "category": "place",
            "type": "restaurant",
            "region": "تهران، استان تهران",
            "neighbourhood": "محله کشاورز - پارک لاله",
            "location": {
                "x": 51.4064695,
                "y": 35.71216870000001,
                "z": "NaN"
            }
        },
        {
            "title": "رستوران زند هتل پارسیان کوثر",
            "address": "کریمخان زند، ملائی",
            "category": "place",
            "type": "restaurant",
            "region": "تهران، استان تهران",
            "neighbourhood": "محله بهجت آباد",
            "location": {
                "x": 51.40823365277863,
                "y": 35.71289157958553,
                "z": "NaN"
            }
        },
        {
            "title": "کافه رستوران کماجدون",
            "address": "بلوار کشاورز، ولیعصر",
            "category": "place",
            "type": "restaurant",
            "region": "تهران، استان تهران",
            "neighbourhood": "محله ولیعصر",
            "location": {
                "x": 51.4070232,
                "y": 35.7110074,
                "z": "NaN"
            }
        },
        {
            "title": "استار برگر",
            "address": "ولیعصر، حسینی",
            "category": "place",
            "type": "restaurant",
            "region": "تهران، استان تهران",
            "neighbourhood": "محله کشاورز - پارک لاله",
            "location": {
                "x": 51.4069766,
                "y": 35.71289729999999,
                "z": "NaN"
            }
        },
        {
            "title": "کافه رستوران آن",
            "address": "ولیعصر",
            "category": "place",
            "type": "restaurant",
            "region": "تهران، استان تهران",
            "neighbourhood": "محله ولیعصر",
            "location": {
                "x": 51.40680385648346,
                "y": 35.71106618898376,
                "z": "NaN"
            }
        },
        {
            "title": "رستوران بهمن",
            "address": "ولیعصر، حسینی",
            "category": "place",
            "type": "restaurant",
            "region": "تهران، استان تهران",
            "neighbourhood": "محله کشاورز - پارک لاله",
            "location": {
                "x": 51.406515,
                "y": 35.71289399999999,
                "z": "NaN"
            }
        },
        {
            "title": "رستوران و کترینگ دانیار",
            "address": "ولیعصر",
            "category": "place",
            "type": "restaurant",
            "region": "تهران، استان تهران",
            "neighbourhood": "محله ولیعصر",
            "location": {
                "x": 51.407066642909285,
                "y": 35.71069688662091,
                "z": "NaN"
            }
        },
        {
            "title": "رستوران هتل ایران",
            "address": "ولیعصر، شهامتی",
            "category": "place",
            "type": "restaurant",
            "region": "تهران، استان تهران",
            "neighbourhood": "محله کشاورز - پارک لاله",
            "location": {
                "x": 51.407403432210494,
                "y": 35.713298845038125,
                "z": "NaN"
            }
        },
        {
            "title": "تهیه غذا و رستوران دانیار",
            "address": "ولیعصر",
            "category": "place",
            "type": "restaurant",
            "region": "تهران، استان تهران",
            "neighbourhood": "محله ولیعصر",
            "location": {
                "x": 51.40705212138664,
                "y": 35.71065404600632,
                "z": "NaN"
            }
        },
        {
            "title": "سفره خانه سنتی سیب",
            "address": "بلوار کشاورز، مینو",
            "category": "place",
            "type": "restaurant",
            "region": "تهران، استان تهران",
            "neighbourhood": "محله ولیعصر",
            "location": {
                "x": 51.4064455,
                "y": 35.71094449999999,
                "z": "NaN"
            }
        },
        {
            "title": "زیب زمینی",
            "address": "ولیعصر، صومعه سرا",
            "category": "place",
            "type": "restaurant",
            "region": "تهران، استان تهران",
            "neighbourhood": "محله ولیعصر",
            "location": {
                "x": 51.40696952865167,
                "y": 35.710564718439386,
                "z": "NaN"
            }
        },
        {
            "title": "کی با کی",
            "address": "ولیعصر، صومعه سرا",
            "category": "place",
            "type": "restaurant",
            "region": "تهران، استان تهران",
            "neighbourhood": "محله ولیعصر",
            "location": {
                "x": 51.4070158,
                "y": 35.710498599999994,
                "z": "NaN"
            }
        },
        {
            "title": "رستوران موبی دیک",
            "address": "ولیعصر، شهیدان سازش (شقایق)",
            "category": "place",
            "type": "restaurant",
            "region": "تهران، استان تهران",
            "neighbourhood": "محله ولیعصر",
            "location": {
                "x": 51.409452899999984,
                "y": 35.7113658,
                "z": "NaN"
            }
        },
        {
            "title": "کافی شاپ د ر",
            "address": "بلوار کشاورز، مینو",
            "category": "place",
            "type": "restaurant",
            "region": "تهران، استان تهران",
            "neighbourhood": "محله ولیعصر",
            "location": {
                "x": 51.40623506365241,
                "y": 35.710734670752906,
                "z": "NaN"
            }
        },
        {
            "title": "کافه و رستوران بادمجون کباب",
            "address": "ولیعصر، فرشید",
            "category": "place",
            "type": "restaurant",
            "region": "تهران، استان تهران",
            "neighbourhood": "محله کشاورز - پارک لاله",
            "location": {
                "x": 51.40715962846142,
                "y": 35.7136360011187,
                "z": "NaN"
            }
        },
        {
            "title": "ژابیز برگر",
            "address": "کریمخان زند، شهید دادی",
            "category": "place",
            "type": "restaurant",
            "region": "تهران، استان تهران",
            "neighbourhood": "محله ولیعصر",
            "location": {
                "x": 51.41002009999999,
                "y": 35.7119047,
                "z": "NaN"
            }
        },
        {
            "title": "رستوران سعدی",
            "address": "ولیعصر، غزایی عتیق",
            "category": "place",
            "type": "restaurant",
            "region": "تهران، استان تهران",
            "neighbourhood": "محله کشاورز - پارک لاله",
            "location": {
                "x": 51.40709182585395,
                "y": 35.71379231952697,
                "z": "NaN"
            }
        },
        {
            "title": "رستوران کبابی بلور",
            "address": "ولیعصر",
            "category": "place",
            "type": "restaurant",
            "region": "تهران، استان تهران",
            "neighbourhood": "محله ولیعصر",
            "location": {
                "x": 51.406946609426235,
                "y": 35.710065662269606,
                "z": "NaN"
            }
        },
        {
            "title": "رستوران هتل ولیعصر",
            "address": "ولیعصر، غزایی عتیق",
            "category": "place",
            "type": "restaurant",
            "region": "تهران، استان تهران",
            "neighbourhood": "محله کشاورز - پارک لاله",
            "location": {
                "x": 51.40703006367273,
                "y": 35.71384649892791,
                "z": "NaN"
            }
        },
        {
            "title": "رستوران هتل ایران",
            "address": "ولیعصر، شهامتی",
            "category": "place",
            "type": "restaurant",
            "region": "تهران، استان تهران",
            "neighbourhood": "محله بهجت آباد",
            "location": {
                "x": 51.409082426774006,
                "y": 35.71361191298399,
                "z": "NaN"
            }
        },
        {
            "title": "رستوران آقا بزرگ",
            "address": "بلوار کشاورز",
            "category": "place",
            "type": "restaurant",
            "region": "تهران، استان تهران",
            "neighbourhood": "محله کشاورز - پارک لاله",
            "location": {
                "x": 51.4054447,
                "y": 35.710916499999996,
                "z": "NaN"
            }
        },
        {
            "title": "کافه رستوران آروکو",
            "address": "ولیعصر، شهیدان سازش (شقایق)",
            "category": "place",
            "type": "restaurant",
            "region": "تهران، استان تهران",
            "neighbourhood": "محله ولیعصر",
            "location": {
                "x": 51.41015627238362,
                "y": 35.711293063962536,
                "z": "NaN"
            }
        },
        {
            "title": "رستوران پیام",
            "address": "ولیعصر",
            "category": "place",
            "type": "restaurant",
            "region": "تهران، استان تهران",
            "neighbourhood": "محله کشاورز - پارک لاله",
            "location": {
                "x": 51.407525400000004,
                "y": 35.714115400000004,
                "z": "NaN"
            }
        },
        {
            "title": "کافه رستوران چهارسوق",
            "address": "ولیعصر",
            "category": "place",
            "type": "restaurant",
            "region": "تهران، استان تهران",
            "neighbourhood": "محله کشاورز - پارک لاله",
            "location": {
                "x": 51.407414213713615,
                "y": 35.71419805441479,
                "z": "NaN"
            }
        },
        {
            "title": "رستوران ایتالیایی کاخک",
            "address": "بلوار کشاورز",
            "category": "place",
            "type": "restaurant",
            "region": "تهران، استان تهران",
            "neighbourhood": "محله کشاورز - پارک لاله",
            "location": {
                "x": 51.4051943,
                "y": 35.7108661,
                "z": "NaN"
            }
        },
        {
            "title": "کافه رستوران هفت آسمان",
            "address": "بلوار کشاورز",
            "category": "place",
            "type": "restaurant",
            "region": "تهران، استان تهران",
            "neighbourhood": "محله کشاورز - پارک لاله",
            "location": {
                "x": 51.40474979999999,
                "y": 35.71119803333333,
                "z": "NaN"
            }
        }
    ]
}